name,address1,address2,address3,borough_code,borough_name,os_addressbase_uprn,ward_2018_code,ward_2018_name,website,longitude,latitude,easting,northing,runtime
Harlequin,27 Arlington Way,London,Finsbury,E09000019,Islington,,E05000370,Clerkenwell,,-0.10610658511907134,51.53011014612802,531468.8055728163,182944.2694294614,08/25/2019
Peasant,240 St John Street,London,Finsbury,E09000019,Islington,,E05000370,Clerkenwell,,-0.1032631025020614,51.52602647776972,531677.8032139972,182495.26061975327,08/25/2019
Blues Kitchen,134 Curtain Road,London,Shoreditch,E09000012,Hackney,,E05009377,Hoxton East & Shoreditch,,-0.07997231300011513,51.52656454334939,533291.8353968068,182597.23334322713,08/25/2019
Caraway Lounge,290 North Street,Romford,,E09000016,Havering,,E05000306,Brooklands,,0.17274672543277814,51.585186745646936,550627.8712056858,189606.3078209457,08/25/2019
Rye,31 Peckham Rye,Peckham,London,E09000028,Southwark,,E05011113,Rye Lane,,-0.06539738721431776,51.464652411797815,534484.7950557634,175739.0918689295,08/25/2019
Eleven,5 Fernlea Road,Balham,,E09000032,Wandsworth,,E05000610,Balham,,-0.14826945321323656,51.44285263704494,528789.7884998354,173166.0851766722,08/25/2019
Royal,Boston Road,Hanwell,,E09000009,Ealing,,E05000182,Northfield,,-0.32656310813794753,51.49829164143888,516258.52621707466,179033.09244053916,08/25/2019
Bitter End Bar,139 Masons Hill,Bromley,,E09000006,Bromley,,E05000109,Bromley Town,,0.02524008403156215,51.39620557790606,540990.8080613733,168298.0315933384,08/25/2019
Hope,3 Melon Road,Peckham,London,E09000028,Southwark,,E05011110,Peckham,,-0.07103817649275285,51.473594396262285,534066.7934380342,176723.12224428827,08/25/2019
Blues Kitchen,40 Acre Lane,Brixton,,E09000022,Lambeth,,E05000421,Ferndale,,-0.12041312354054397,51.460313880106504,530675.7908535904,175157.11872223648,08/25/2019
Richmal Crompton,23 Westmoreland Place,Bromley,,E09000006,Bromley,,E05000109,Bromley Town,,0.01629690684301556,51.39976786491423,540357.7985818967,168677.00453395117,08/25/2019
Partridge,194 High Street,Bromley,,E09000006,Bromley,,E05000109,Bromley Town,,0.014278857896156018,51.40520720523722,540200.804844503,169277.99713850307,08/25/2019
Bar Sport,196-198 High Street,Bromley,,E09000006,Bromley,,E05000109,Bromley Town,,0.014278857896156018,51.40520720523722,540200.804844503,169277.99713850307,08/25/2019
Havet,195-199 High Street,Bromley,,E09000006,Bromley,,E05000109,Bromley Town,,0.013886947222984123,51.406104225009244,540170.8067616532,169376.9963220558,08/25/2019
Greyhound,205 High Street,Bromley,,E09000006,Bromley,,E05000109,Bromley Town,,0.01314047451553142,51.40645877028565,540117.8082150007,169414.9952815753,08/25/2019
Star & Garter,227 High Street,Bromley,,E09000006,Bromley,,E05000109,Bromley Town,,0.01247096090046672,51.406928896364995,540069.8097808678,169465.99429881724,08/25/2019
Swan & Mitre,260-262 High Street,Bromley,,E09000006,Bromley,,E05000109,Bromley Town,,0.01199366693556537,51.40686514494168,540036.8102366037,169457.99374278297,08/25/2019
Metropolis,256A High Street,Bromley,,E09000006,Bromley,,E05000109,Bromley Town,,0.01199366693556537,51.40686514494168,540036.8102366037,169457.99374278297,08/25/2019
Barrel & Horn,204-206 High Street,Bromley,,E09000006,Bromley,,E05000109,Bromley Town,,0.013392133092803118,51.4059688377614,540136.807113732,169360.99576775706,08/25/2019
O'Neill's,27-29 East St,Bromley,,E09000006,Bromley,,E05000109,Bromley Town,,0.015668645357416435,51.40673008533401,540292.8058360156,169449.99832197005,08/25/2019
Railway Tavern,45 East Street,Bromley,,E09000006,Bromley,,E05000109,Bromley Town,,0.016215940017572445,51.40740412928509,540328.8063676842,169525.99876387854,08/25/2019
Belgo,242 The Glades,Bromley,,E09000006,Bromley,,E05000106,Bickley,,0.03563680755826283,51.403732273542275,541690.7862909698,169155.02864068619,08/25/2019
Lord Holmesdale,184 Homesdale Road,Bromley,,E09000006,Bromley,,E05000106,Bickley,,0.03498042062974891,51.399957720379106,541656.7878984947,168734.03339122614,08/25/2019
Oak,206 Widmore Road,Bromley,,E09000006,Bromley,,E05000106,Bickley,,0.03410549519427325,51.405836175942135,541577.7882512731,169386.02399066335,08/25/2019
Crown & Anchor,19 Park Road,Bromley,,E09000006,Bromley,,E05000125,Plaistow and Sundridge,,0.02163998300315564,51.40812908453971,540703.8019802592,169617.00540798792,08/25/2019
Freelands Tavern,31 Freelands Road,Bromley,,E09000006,Bromley,,E05000125,Plaistow and Sundridge,,0.024611251062558136,51.41061380480179,540902.8044376931,169899.0095876045,08/25/2019
White Horse,64 Palace Road,Bromley,,E09000006,Bromley,,E05000125,Plaistow and Sundridge,,0.020894229954613586,51.408825391898354,540649.8036277682,169693.00403949153,08/25/2019
Anglesey Arms,90 Palace Road,Bromley,,E09000006,Bromley,,E05000125,Plaistow and Sundridge,,0.020894229954613586,51.408825391898354,540649.8036277682,169693.00403949153,08/25/2019
Red Lion,10 North Road,Bromley,,E09000006,Bromley,,E05000125,Plaistow and Sundridge,,0.021879749219563243,51.40997747824189,540714.8056259081,169823.00597752281,08/25/2019
Hop & Rye,54 London Road,Bromley,,E09000006,Bromley,,E05000125,Plaistow and Sundridge,,0.009769752545266725,51.411561599340594,539867.8220634037,169975.99442071555,08/25/2019
Prince Frederick,31 Nichol Lane,Bromley,,E09000006,Bromley,,E05000125,Plaistow and Sundridge,,0.01930155689445569,51.415750381394155,540517.8238213949,170460.00729166012,08/25/2019
Bonnie's,28-30 Bromley Hill,Bromley,Downham,E09000023,Lewisham,,E05000442,Downham,,-0.0016269612308863815,51.42094725762445,539046.8359310953,170998.00637863617,08/25/2019
Downham Tavern,419 Downham Way,Grove Park,Downham,E09000023,Lewisham,,E05000442,Downham,,0.013136172476824224,51.427628268013926,540052.835385805,171769.03143380897,08/25/2019
Shortlands Tavern,5 Station Road,Bromley,,E09000006,Bromley,,E05000109,Bromley Town,,0.0042020939664687154,51.40493023909374,539500.8158656278,169227.98480827158,08/25/2019
Greyhound,Commonside,Keston,,E09000006,Bromley,,E05000108,Bromley Common and Keston,,0.02858458489082019,51.36354958268831,541323.9395046581,164673.15237886336,08/25/2019
Fox Inn,Heathfield Road,Keston,,E09000006,Bromley,,E05000108,Bromley Common and Keston,,0.0273100414787619,51.36135943642731,541241.948560648,164427.15730751312,08/25/2019
Crown Inn,Leaves Green Road,Keston,,E09000006,Bromley,,E05000117,Darwin,,0.030205744068063423,51.34203763494014,541503.0095624535,162284.1794928431,08/25/2019
Kings Arms,Leaves Green Rd,Keston,,E09000006,Bromley,,E05000117,Darwin,,0.029645456210684304,51.33520347685677,541485.0150634408,161523.1531437911,08/25/2019
New Inn,59 Station Approach,Hayes,,E09000006,Bromley,,E05000119,Hayes and Coney Hall,,0.011302069882955979,51.375996372109775,540082.8972830607,166024.08384907956,08/25/2019
Real Ale Way,"55 Station Approach, Hayes",Hayes,,E09000006,Bromley,,E05000119,Hayes and Coney Hall,,0.011535146289121225,51.3763970396319,540097.8955222127,166069.0827419008,08/25/2019
Pie & Pint Bar,6 Bourne Way,Hayes,,E09000006,Bromley,,E05000119,Hayes and Coney Hall,,0.006895637206408839,51.37610784270458,539775.8985682778,166028.0760330229,08/25/2019
George,29 Hayes Street,Hayes,,E09000006,Bromley,,E05000119,Hayes and Coney Hall,,0.01831303028805495,51.37989558609414,540558.878405709,166471.08111505985,08/25/2019
Crooked Billet,286 Southborough Lane,Bromley,,E09000006,Bromley,,E05000108,Bromley Common and Keston,,0.05681240200470426,51.3898737690461,543206.8177984651,167655.09988131712,08/25/2019
Chequers,177 Southborough Lane,Bromley,,E09000006,Bromley,,E05000106,Bickley,,0.04518699261467155,51.39025701559228,542396.82442156,167675.0860810895,08/25/2019
Two Doves,37 Oakley Road Kent,Bromley Common,Bromley,E09000006,Bromley,,E05000108,Bromley Common and Keston,,0.03966160483073325,51.372323021050235,542067.8977663129,165670.1361736002,08/25/2019
Bird in Hand,62 Gravel Road,Bromley Common,Bromley,E09000006,Bromley,,E05000108,Bromley Common and Keston,,0.04266991327119019,51.37438391199831,542270.8879743166,165905.13322473725,08/25/2019
Bricklayers Arms,141-143 Masons Hill,Bromley,,E09000006,Bromley,,E05000109,Bromley Town,,0.02562365664064877,51.39577630237602,541018.8096290758,168251.03378664743,08/25/2019
Crown of Bromley,14 Masons Hill,Bromley,,E09000006,Bromley,,E05000109,Bromley Town,,0.025373215442196985,51.395313014573404,541002.8116283518,168199.03508968977,08/25/2019
Chatterton Arms,41 Chatterton Road,Bromley Common,Bromley,E09000006,Bromley,,E05000108,Bromley Common and Keston,,0.035042457532591345,51.39292445233488,541682.8175775057,167952.05981353793,08/25/2019
Crown,155 Bromley Common,Bromley Common,Bromley,E09000006,Bromley,,E05000108,Bromley Common and Keston,,0.034588648976039756,51.3904683602918,541658.8279506669,167678.06825610367,08/25/2019
George Inn,111 High Street,Beckenham,,E09000006,Bromley,,E05000113,Copers Cope,,-0.027685610642304855,51.406999824110976,537276.8373333964,169397.9568660269,08/25/2019
White Horse,215 High Street,Beckenham,,E09000006,Bromley,,E05000113,Copers Cope,,-0.030198762080711615,51.40640357680917,537103.837580451,169326.9532559404,08/25/2019
Kelsey House,75 High Street,Beckenham,,E09000006,Bromley,,E05000113,Copers Cope,,-0.0259529387030749,51.40750124617986,537395.8373158405,169456.9594972976,08/25/2019
O'Neill's,9 High Street,Beckenham,,E09000006,Bromley,,E05000113,Copers Cope,,-0.02512812922263777,51.410625880501286,537443.8363152898,169805.96507291193,08/25/2019
Patrick's Bar,5 High Street,Beckenham,,E09000006,Bromley,,E05000113,Copers Cope,,-0.02512812922263777,51.410625880501286,537443.8363152898,169805.96507291193,08/25/2019
Bricklayers Arms,237 High Street,Beckenham,,E09000006,Bromley,,E05000113,Copers Cope,,-0.031799129009226434,51.40663728863686,536991.8376440546,169349.95178389567,08/25/2019
Slug & Lettuce,150-156 High Street,Beckenham,,E09000006,Bromley,,E05000113,Copers Cope,,-0.02706324096020606,51.40776274230457,537317.8373261848,169483.9586082031,08/25/2019
Eden Park,422 Upper Elmers End Road,Eden Park,Beckenham,E09000006,Bromley,,E05000120,Kelsey and Eden Park,,-0.02692129238027865,51.38967590709043,537381.8510262645,167472.96626991808,08/25/2019
Coach & Horses,Burnhill Road,Beckenham,,E09000006,Bromley,,E05000120,Kelsey and Eden Park,,-0.026324770058053094,51.40621252852088,537373.8372054284,169312.95730299852,08/25/2019
Club Langley,2 Hawksbrook Lane,Eden Park,Beckenham,E09000006,Bromley,,E05000120,Kelsey and Eden Park,,-0.0224837815280232,51.38858501778888,537693.8549618565,167359.9786665598,08/25/2019
Elm Tree,116 Croydon Road,Elmers End,Beckenham,E09000006,Bromley,,E05000112,Clock House,,-0.045117565792594204,51.39879358075511,536088.8378323104,168452.9367150952,08/25/2019
Chancery,90 Bromley Road,Beckenham,,E09000006,Bromley,,E05000113,Copers Cope,,-0.01799787022787383,51.40691739600975,537950.8366921808,169406.9674442811,08/25/2019
Jolly Woodman,9 Chancery Lane,Beckenham,,E09000006,Bromley,,E05000113,Copers Cope,,-0.018644059975706166,51.40660457390008,537906.83665143,169370.96640019375,08/25/2019
Railway Hotel,"Red Lodge Road,",West Wickham,,E09000006,Bromley,,E05000127,West Wickham,,-0.01314358773494711,51.380225967020245,538368.8884012422,166448.02665983408,08/25/2019
Wheatsheaf,135 High Street,West Wickham,,E09000006,Bromley,,E05000127,West Wickham,,-0.02110791891813977,51.37681755700567,537824.9012968743,166054.02309119777,08/25/2019
Swan,2-4 High Street,West Wickham,,E09000006,Bromley,,E05000127,West Wickham,,-0.01612224486424008,51.37613983114342,538173.9064722697,165988.0368573937,08/25/2019
Coney,35 Croydon Road,Coney Hall,,E09000006,Bromley,,E05000119,Hayes and Coney Hall,,0.002026639713991297,51.37022001407329,539454.9253762804,165364.08995520842,08/25/2019
Sovereign of the Seas,109-111 Queensway,Petts Wood,Orpington,E09000006,Bromley,,E05000124,Petts Wood and Knoll,,0.07184494736814034,51.38951006529308,544253.8049888839,167644.10971542523,08/25/2019
One Inn The Wood,209 Petts Wood Road,Petts Wood,Orpington,E09000006,Bromley,,E05000124,Petts Wood and Knoll,,0.07394064784956392,51.39008449867107,544397.8007569821,167712.10895457095,08/25/2019
Daylight Inn,Station Square,Petts Wood,Orpington,E09000006,Bromley,,E05000124,Petts Wood and Knoll,,0.07518570590271778,51.389010303684465,544487.8030192407,167595.11170759657,08/25/2019
Bull Inn,Main Road,St Paul's Cray,Orpington,E09000006,Bromley,,E05000114,Cray Valley East,,0.11771505149382205,51.40390511796748,547398.8406575747,169336.0086667504,08/25/2019
White Swan,21 Kent Road,St Mary Cray,Orpington,E09000006,Bromley,,E05000114,Cray Valley East,,0.11236363523981362,51.38636709749852,547082.8534765713,167375.0756796325,08/25/2019
Beech Tree,75 Wellington Road,St Mary Cray,Orpington,E09000006,Bromley,,E05000114,Cray Valley East,,0.11124203740487791,51.38479564386403,547009.8489842465,167198.0853471929,08/25/2019
Cricketers,93 Chislehurst Road,Orpington,,E09000006,Bromley,,E05000124,Petts Wood and Knoll,,0.10042458336762178,51.38145618286126,546267.8179622171,166805.1224096106,08/25/2019
White Hart,106 High St,Orpington,,E09000006,Bromley,,E05000124,Petts Wood and Knoll,,0.10250647033960959,51.37953032628271,546418.8266128987,166595.12405851617,08/25/2019
Harvest Moon,141-143 High Street,Orpington,,E09000006,Bromley,,E05000122,Orpington,,0.10140881229766636,51.377841420126096,546347.8266984321,166405.13133007096,08/25/2019
Maxwell,Station Road,Orpington,,E09000006,Bromley,,E05000122,Orpington,,0.09464302229509647,51.37253999158113,545893.8382226068,165802.14978867298,08/25/2019
Royal Oak,High Street,Green St Green,Orpington,E09000006,Bromley,,E05000110,Chelsfield and Pratts Bottom,,0.08917328864004027,51.35146840337202,545579.9114511658,163448.17528654466,08/25/2019
Queen's Head,73 High Street,Green St Green,Orpington,E09000006,Bromley,,E05000110,Chelsfield and Pratts Bottom,,0.08923985768778407,51.35293308317148,545579.9069654664,163611.17616807413,08/25/2019
Rose & Crown,Farnborough Way,Green St Green,Orpington,E09000006,Bromley,,E05000117,Darwin,,0.08821496456049867,51.350289414885474,545516.9161061135,163315.17424691084,08/25/2019
Chelsfield,1 Windsor Drive,Chelsfield,Orpington,E09000006,Bromley,,E05000110,Chelsfield and Pratts Bottom,,0.10532368026204186,51.35635018712362,546688.878892935,164023.17471286963,08/25/2019
Woodman,50 High Street,Farnborough,Orpington,E09000006,Bromley,,E05000118,Farnborough and Crofton,,0.06997651599342945,51.3592194673123,544218.9100081983,164272.17602138245,08/25/2019
Change of Horses,87 High Street,Farnborough,Orpington,E09000006,Bromley,,E05000118,Farnborough and Crofton,,0.06772096922317528,51.359529086025496,544060.9115180646,164302.1749875315,08/25/2019
Bulls Head,Rushmore Hill,Pratts Bottom,Orpington,E09000006,Bromley,,E05000110,Chelsfield and Pratts Bottom,,0.11177491006267065,51.34014508909452,547189.9136068721,162234.12808572454,08/25/2019
Bo Peep,Hewitts Road,Chelsfield,Orpington,E09000006,Bromley,,E05000110,Chelsfield and Pratts Bottom,,0.13751727285195245,51.35029868234211,548949.8842688333,163415.10599763674,08/25/2019
Five Bells,Church Road,Chelsfield,Orpington,E09000006,Bromley,,E05000110,Chelsfield and Pratts Bottom,,0.1274899267468256,51.357055516890235,548229.8699370001,164146.14360880322,08/25/2019
Queen's Head,25 High Street,Downe,Orpington,E09000006,Bromley,,E05000117,Darwin,,0.05387216619169143,51.33666059428056,543167.9940576497,161732.1494481707,08/25/2019
George & Dragon,26 High Street,Downe,Orpington,E09000006,Bromley,,E05000117,Darwin,,0.05372258988033514,51.33620456110887,543158.9953351269,161681.14784698316,08/25/2019
Whyte Lyon (Ye Olde),Farnborough Common,Locksbottom,Orpington,E09000006,Bromley,,E05000118,Farnborough and Crofton,,0.057232922624144415,51.36396732425988,543316.9086283409,164775.16361945646,08/25/2019
British Queen,427 Crofton Road,Locksbottom,Orpington,E09000006,Bromley,,E05000118,Farnborough and Crofton,,0.05453966468267596,51.366703426600736,543120.9024770197,165074.1572726271,08/25/2019
Black Horse,318 Crofton Road,Locksbottom,Orpington,E09000006,Bromley,,E05000118,Farnborough and Crofton,,0.05672060945680429,51.368247884071984,543267.8947885392,165250.15422691096,08/25/2019
Buff,Pinewood Drive,Orpington,,E09000006,Bromley,,E05000110,Chelsfield and Pratts Bottom,,0.08667679636787,51.358797270613564,545382.8923431435,164258.1793938764,08/25/2019
Queens Head,2 High Street,Chislehurst,,E09000006,Bromley,,E05000111,Chislehurst,,0.06787714696421679,51.418186102025295,543887.7816952119,170825.05458927306,08/25/2019
Gordon Arms,47 Park Road,Chislehurst,,E09000006,Bromley,,E05000111,Chislehurst,,0.06862357722059716,51.41910818332729,543936.7854578409,170929.05403285846,08/25/2019
Imperial Arms,Old Hill,Chislehurst,,E09000006,Bromley,,E05000111,Chislehurst,,0.0608085687903328,51.408769167894675,543425.7598957632,169764.05421871162,08/25/2019
Rambler's Rest,Mill Place,Chislehurst,,E09000006,Bromley,,E05000111,Chislehurst,,0.06197035093141799,51.40870377925677,543506.7586831924,169759.05575903307,08/25/2019
Bickley,Chislehurst Road,Chislehurst,,E09000006,Bromley,,E05000111,Chislehurst,,0.055827576947672465,51.40767856094799,543082.7671252019,169633.05046547344,08/25/2019
Tigers Head,Watts Lane,Chislehurst,,E09000006,Bromley,,E05000111,Chislehurst,,0.06900855079966504,51.40948802339054,543993.7567861532,169860.0583837728,08/25/2019
Crown Inn,School Road,Chislehurst,,E09000006,Bromley,,E05000111,Chislehurst,,0.07295809077861395,51.41065023746475,544264.7604305733,169997.05724042887,08/25/2019
Bull's Head Hotel,Royal Parade,Chislehurst,,E09000006,Bromley,,E05000111,Chislehurst,,0.07537331260721356,51.411587704257016,544429.7634419049,170106.0563014493,08/25/2019
Sydney Arms,Old Perry Street,Chislehurst,,E09000006,Bromley,,E05000111,Chislehurst,,0.08669158383826334,51.41507368546201,545205.7844667544,170516.04415165336,08/25/2019
Man on the Moon,"112 Headley Drive, New Addington",Croydon,,E09000008,Croydon,,E05011470,New Addington North,,-0.01804983051743854,51.35214354247703,538111.8782254527,163316.0359368915,08/25/2019
Keg & Grill,1 South End,Croydon,,E09000008,Croydon,,E05011484,South Croydon,,-0.09874131111592606,51.36688900510577,532450.7902568968,164807.00149696774,08/25/2019
Joker,73 South End,Croydon,,E09000008,Croydon,,E05011484,South Croydon,,-0.09872085165193514,51.365647641777045,532455.7934036449,164668.99807246245,08/25/2019
Obia Bar & Grill,49c South End,Croydon,,E09000008,Croydon,,E05011484,South Croydon,,-0.09872085165193514,51.365647641777045,532455.7934036449,164668.99807246245,08/25/2019
Surrey Cricketers,23 West Street,Croydon,,E09000008,Croydon,,E05011468,Fairfield,,-0.1005843785168162,51.36817792499301,532318.7847698089,164947.00557188998,08/25/2019
Apatura Lounge Restaurant,14 South End,Croydon,,E09000008,Croydon,,E05011468,Fairfield,,-0.09916643656240308,51.367030801753415,532420.7892363846,164822.00221481558,08/25/2019
Scream Lounge,20 South End,Croydon,,E09000008,Croydon,,E05011468,Fairfield,,-0.09928924270733647,51.36649321655577,532413.7903935463,164762.00083185505,08/25/2019
Treehouse,78 South End,Croydon,,E09000008,Croydon,,E05011468,Fairfield,,-0.09924869138061894,51.36573714806905,532418.7923545367,164677.9987223947,08/25/2019
Skylark,34-36 South End,Croydon,,E09000008,Croydon,,E05011468,Fairfield,,-0.09924869138061894,51.36573714806905,532418.7923545367,164677.9987223947,08/25/2019
Matthews Yard,1 Matthews Yard,Croydon,,E09000008,Croydon,,E05011468,Fairfield,,-0.10109493459058976,51.3721610649373,532271.7766323164,165389.0131311746,08/25/2019
Milan Bar,16 High Street,Croydon,,E09000008,Croydon,,E05011468,Fairfield,,-0.10078756035799079,51.37299242021251,532290.7755018066,165482.01451832918,08/25/2019
Slug & Lettuce,10 Park Lane,Croydon,,E09000008,Croydon,,E05011468,Fairfield,,-0.09730612072041647,51.373790243767694,532530.7784902871,165577.0148579384,08/25/2019
George,17-21 George Street,Croydon,,E09000008,Croydon,,E05011468,Fairfield,,-0.09857066330061319,51.37413452303796,532441.7761931338,165613.01594653365,08/25/2019
Cronx,"Units 3 & 4, Boxpark Croydon, 99 George Street",Croydon,,E09000008,Croydon,,E05011468,Fairfield,,-0.09467827981509003,51.37479070720711,532710.7797466071,165693.01626077836,08/25/2019
Beatbox,"Units 22-26, Ground Floor, Boxpark Croydon",Croydon,,E09000008,Croydon,,E05011468,Fairfield,,-0.09467827981509003,51.37479070720711,532710.7797466071,165693.01626077836,08/25/2019
Green Dragon,58 High Street,Croydon,,E09000008,Croydon,,E05011468,Fairfield,,-0.10053685928055285,51.37106387499904,532313.7794407685,165268.0108644183,08/25/2019
Memory Box,80-88 High Street,Croydon,,E09000008,Croydon,,E05011468,Fairfield,,-0.10053685928055285,51.37106387499904,532313.7794407685,165268.0108644183,08/25/2019
Crown & Pepper,242 High Street,Croydon,,E09000008,Croydon,,E05011468,Fairfield,,-0.09986511968018218,51.368894681515265,532366.7845026167,165028.0064198323,08/25/2019
South Beats,282 High Street,Croydon,,E09000008,Croydon,,E05011468,Fairfield,,-0.09945462509717559,51.36805167963892,532397.7867316159,164935.00453200773,08/25/2019
Spreadeagle,39-41 Katharine Street,Croydon,,E09000008,Croydon,,E05011468,Fairfield,,-0.09924069650737923,51.37252667525792,532399.7784381886,165433.01303548476,08/25/2019
Ship,47 High Street,Croydon,,E09000008,Croydon,,E05011468,Fairfield,,-0.10006559288899061,51.372036456891756,532343.7782613178,165377.0124514185,08/25/2019
Dog & Bull,24 Surrey Street,Croydon,,E09000008,Croydon,,E05011468,Fairfield,,-0.1015692429479332,51.37285221348353,532236.7747273477,165465.01456338208,08/25/2019
Market Tavern,1-4 Surrey Street,Croydon,,E09000008,Croydon,,E05011468,Fairfield,,-0.1015692429479332,51.37285221348353,532236.7747273477,165465.01456338208,08/25/2019
Art & Craft CR0,46 Surrey Street,Croydon,,E09000008,Croydon,,E05011468,Fairfield,,-0.100848104385553,51.37257073593529,532287.7762053496,165435.0137717303,08/25/2019
Mr Fox,34 Surrey Street,Croydon,,E09000008,Croydon,,E05011468,Fairfield,,-0.100848104385553,51.37257073593529,532287.7762053496,165435.0137717303,08/25/2019
Royal Standard,1 Sheldon Street,Croydon,,E09000008,Croydon,,E05011468,Fairfield,,-0.10196871345245187,51.369792109003,532217.7800234903,165124.0089406938,08/25/2019
Bulls Head,39 Laud Street,Croydon,,E09000008,Croydon,,E05011468,Fairfield,,-0.1009832407787295,51.36965023630771,532286.7814346391,165110.0085254935,08/25/2019
Bishop's Wine Bar,1129 Whitgift Centre,Croydon,,E09000008,Croydon,,E05011468,Fairfield,,-0.10031534482807207,51.37537687232563,532316.7716418,165748.01877857174,08/25/2019
Luna,18 High Street,Croydon,,E09000008,Croydon,,E05011468,Fairfield,,-0.10055024927538463,51.37351915275242,532305.7748295965,165541.0154008881,08/25/2019
Dice,36 High Street,Croydon,,E09000008,Croydon,,E05011468,Fairfield,,-0.10056539478077259,51.37245823676616,532307.7767934843,165423.01344981295,08/25/2019
Alchemy,28-30 St George's Walk,Croydon,,E09000008,Croydon,,E05011468,Fairfield,,-0.09805979498160182,51.37293916469844,532480.779203439,165481.0133849149,08/25/2019
Windmill,224 St James's Road,Croydon,,E09000008,Croydon,,E05011468,Fairfield,,-0.09336413093500247,51.38152294472848,532782.7718964724,166444.02342005976,08/25/2019
Two Brewers,221 Gloucester Road,Croydon,,E09000008,Croydon,,E05011479,Selhurst,,-0.08982987610664978,51.388057122996166,533009.7750498123,167177.0308822021,08/25/2019
Bedford Tavern,16 Sydenham Road,Croydon,,E09000008,Croydon,,E05011468,Fairfield,,-0.09443861700020093,51.38021847770861,532711.7727504715,166297.0217685544,08/25/2019
Olde Clock Tower,35 Whitehorse Road,Croydon,,E09000008,Croydon,,E05011479,Selhurst,,-0.09774592115727036,51.38502040436206,532467.7688140752,166825.0236335041,08/25/2019
Pawson's Arms,69 Pawson's Road,Croydon,,E09000008,Croydon,,E05011479,Selhurst,,-0.0960172481797917,51.39307686604229,532564.7831017176,167724.0322539396,08/25/2019
Lion Inn,182 Pawson's Road,Croydon,,E09000008,Croydon,,E05011464,Bensham Manor,,-0.0990027890681076,51.391794420142894,532360.7813752068,167576.03240076097,08/25/2019
Phoenix,12 Station Road,Croydon,,E09000008,Croydon,,E05011468,Fairfield,,-0.10153019119611797,51.378660932974896,532222.768006207,166111.0192047889,08/25/2019
Old Fox & Hounds,1 London Road,Croydon,,E09000008,Croydon,,E05011468,Fairfield,,-0.10372878423475612,51.378660541084066,532069.7678254561,166107.01621204696,08/25/2019
Saints & Sinners,482 London Road,Croydon,,E09000008,Croydon,,E05011488,West Thornton,,-0.1107792385172668,51.38750633051695,531553.7749023819,167078.01126433327,08/25/2019
Golden Lion,144 Stanley Road,Croydon,,E09000008,Croydon,,E05011488,West Thornton,,-0.11624501254082358,51.38670396834442,531175.7741534995,166979.00156586152,08/25/2019
Wandle Arms,90 Waddon New Road,Croydon,,E09000008,Croydon,,E05011487,Waddon,,-0.10828801739289724,51.37403098519846,531765.7703596565,165584.00936702534,08/25/2019
Waddon,2 Stafford Road,Croydon,,E09000008,Croydon,,E05011487,Waddon,,-0.11685517932419186,51.366588064987155,531190.7710902934,164741.0016071457,08/25/2019
Hare & Hounds,325 Purley Way,Croydon,,E09000008,Croydon,,E05011487,Waddon,,-0.11713981918712298,51.37225805026119,531154.7681046153,165371.00038900954,08/25/2019
Plough,Croydon Road,Croydon,Beddington,E09000029,Sutton,,E05000555,Beddington North,,-0.131871226275317,51.3672060131837,530143.7675398611,164782.98334940086,08/25/2019
Harvest Home,27 Beddington Lane,Croydon,,E09000029,Sutton,,E05000555,Beddington North,,-0.1317035198538915,51.372032402596524,530141.767128974,165319.98066870362,08/25/2019
Frankie & Benny's,Valley Leisure Park Purley Way,Croydon,,E09000008,Croydon,,E05011465,Broad Green,,-0.12330028270643166,51.37725783096052,530711.7670308811,165915.98954137304,08/25/2019
Beach Road Cafe Bar,23 Hesterman Way,Croydon,,E09000008,Croydon,,E05011465,Broad Green,,-0.12450070304906824,51.37812234849377,530625.7672486665,166009.98730084085,08/25/2019
Cricketers Inn,"36 Addington Village Road, Addington",Croydon,,E09000008,Croydon,,E05011480,Selsdon & Addington Village,,-0.030009167888513093,51.35860388990073,537259.8520293778,164011.98801090324,08/25/2019
Surprise,107 Upper Shirley Road,Croydon,,E09000008,Croydon,,E05011483,Shirly South,,-0.05345048594838292,51.3677544747241,535600.8474854727,164985.95428098855,08/25/2019
Coombe Lodge,104 Coombe Road,Croydon,,E09000008,Croydon,,E05011484,South Croydon,,-0.07152740951332891,51.36253200540739,534357.8439073313,164371.96819583286,08/25/2019
Orchard,112 Cherry Orchard Road,Croydon,,E09000008,Croydon,,E05011463,Addiscombe West,,-0.08960377079900425,51.37795448953707,533054.7803422202,166054.02033092646,08/25/2019
Oval Tavern,131 Oval Road,Croydon,,E09000008,Croydon,,E05011463,Addiscombe West,,-0.08850492574961794,51.37811642455443,533130.7811577215,166074.0206836798,08/25/2019
Porter & Sorter,Station Road,Croydon,,E09000008,Croydon,,E05011463,Addiscombe West,,-0.09184107636983284,51.37598554474069,532904.7809595343,165831.0178645737,08/25/2019
Alma Tavern,127-129 Lower Addiscombe Road,Croydon,,E09000008,Croydon,,E05011463,Addiscombe West,,-0.08193447140609553,51.3795737550482,533583.7876003629,166248.01800351345,08/25/2019
Cricketers,107 Addiscombe Road,Croydon,,E09000008,Croydon,,E05011463,Addiscombe West,,-0.08378221345702673,51.37524245977337,533467.7928835498,165763.01322017482,08/25/2019
Builders Arms,65 Leslie Park Road,Croydon,,E09000008,Croydon,,E05011463,Addiscombe West,,-0.08682981265592797,51.379348088714465,533243.7804834726,166214.02303552534,08/25/2019
Claret & Ale,"5 Bingham Corner, Lower Addiscombe Road",Addiscombe,,E09000008,Croydon,,E05011462,Addiscombe East,,-0.07343833096762373,51.379991753779876,534173.8036527139,166310.00139566947,08/25/2019
Cricketers,47 Shirley Road,Addiscombe,,E09000008,Croydon,,E05011482,Shirley North,,-0.06275075501719993,51.38159585295108,534912.819773372,166507.97520444728,08/25/2019
Orchard,116 Orchard Way,Croydon,,E09000008,Croydon,,E05011482,Shirley North,,-0.040164969340526054,51.38617505656144,536470.853485991,167058.9540489372,08/25/2019
Crown,"28 Wickham Road, Shirley",Croydon,,E09000008,Croydon,,E05011482,Shirley North,,-0.054579693999235894,51.3736545217997,535504.8402721365,165639.9538852137,08/25/2019
Shirley Inn,158 Wickham Road,Croydon,,E09000008,Croydon,,E05011482,Shirley North,,-0.05051520296277779,51.37428835177438,535785.8455367474,165717.94911483058,08/25/2019
Forestdale Arms,"Forestdale Centre, Featherbed Lane",Croydon,,E09000008,Croydon,,E05011481,Selsdon Vale & Forestdale,,-0.038024513783751594,51.35086947834661,536724.8284923234,163136.96564750967,08/25/2019
Randall Tavern,"Fieldway, New Addington",Croydon,,E09000008,Croydon,,E05011470,New Addington North,,-0.020194017514454866,51.35470677684243,537954.8842642606,163597.03333859018,08/25/2019
Toby Carvery,"415 Brighton Road, Croydon",South Croydon,,E09000008,Croydon,,E05011484,South Croydon,,-0.09744364707289718,51.355554836575756,532573.8159252217,163548.97906979523,08/25/2019
Purley Arms,345 Brighton Road,South Croydon,,E09000008,Croydon,,E05011484,South Croydon,,-0.09882820672079667,51.35125180804943,532489.8183484793,163067.9808495033,08/25/2019
Whelan's,13 Selsdon Road,South Croydon,,E09000008,Croydon,,E05011484,South Croydon,,-0.09668578705373444,51.36275481147992,532605.803835063,164350.9886035794,08/25/2019
Crown & Sceptre,32 Junction Road,South Croydon,,E09000008,Croydon,,E05011484,South Croydon,,-0.09653418919667521,51.35947889962141,532625.8122865938,163986.97953434323,08/25/2019
Croham Arms,1 Croham Road,South Croydon,,E09000008,Croydon,,E05011484,South Croydon,,-0.09495119053508391,51.362321918560376,532727.8076227016,164305.9861229601,08/25/2019
Sir Julian Huxley,152 Addington Road,Selsdon,,E09000008,Croydon,,E05011481,Selsdon Vale & Forestdale,,-0.061895680653618466,51.34365003058964,535083.8376353054,162289.97184544755,08/25/2019
Golden Ark,186 Addington Road,Selsdon,,E09000008,Croydon,,E05011481,Selsdon Vale & Forestdale,,-0.061895680653618466,51.34365003058964,535083.8376353054,162289.97184544755,08/25/2019
Fox,Coulsdon Corner Fox Lane,Coulsdon,,E09000008,Croydon,,E05011474,Old Coulsdon,,-0.1088433372915158,51.29595442361849,531950.9272792817,156900.88223721954,08/25/2019
Gardeners Arms,107 London Road,Mitcham,,E09000024,Merton,,E05000460,Figge's Marsh,,-0.161697238895017,51.41018586936025,527947.7819393264,169509.95623873913,08/25/2019
White Lion of Mortimer,223 London Road,Mitcham,,E09000024,Merton,,E05000460,Figge's Marsh,,-0.1634902920822519,51.40706646271421,527831.7794767005,169159.94507189858,08/25/2019
Kings Arms,268 London Road,Mitcham,,E09000024,Merton,,E05000460,Figge's Marsh,,-0.16419840254694737,51.406618917907174,527783.7784028806,169108.94331884134,08/25/2019
Crown Inn,407 London Road,Mitcham,,E09000024,Merton,,E05000458,Cricket Green,,-0.17219249812122836,51.39797592776113,527251.7669392531,168133.92785043758,08/25/2019
Surrey Arms,Morden Road,Mitcham,,E09000024,Merton,,E05000468,Ravensbury,,-0.1810917493267257,51.400137784419776,526626.7528315659,168358.93264704518,08/25/2019
Windmill,40 Commonside West,Mitcham,,E09000024,Merton,,E05000460,Figge's Marsh,,-0.16156779462641546,51.40301654792829,527976.7816084409,168712.93795420515,08/25/2019
Park Place,54 Commonside West,Mitcham,,E09000024,Merton,,E05000458,Cricket Green,,-0.16042557092183246,51.4003097816218,528063.7822139094,168413.93325821852,08/25/2019
Crown of Mitcham,Carshalton Road,Mitcham,,E09000024,Merton,,E05000458,Cricket Green,,-0.15903823783055032,51.39010833055981,528188.7725498411,167281.9349048761,08/25/2019
Ravensbury,260 Croydon Road,Mitcham,,E09000024,Merton,,E05000458,Cricket Green,,-0.1578583155762723,51.39765260673579,528249.7817856728,168122.93491192884,08/25/2019
Tudor Rose,270 Coulsdon Road,Coulsdon,,E09000008,Croydon,,E05011474,Old Coulsdon,,-0.11908165672687908,51.30482427550423,531211.876327705,157868.86799216623,08/25/2019
Coulsdon Manor Hotel,Coulsdon Court Road,Coulsdon,,E09000008,Croydon,,E05011474,Old Coulsdon,,-0.12507376797232073,51.31728550449799,530758.8085642505,159243.87042814825,08/25/2019
Pembroke,12-16 Chipstead Valley Road,Coulsdon,,E09000008,Croydon,,E05011466,Coulsdon Town,,-0.1391941976922951,51.32084686437306,529764.799305822,159614.84931010214,08/25/2019
Smugglers Inn,320 Chipstead Valley Road,Coulsdon,,E09000008,Croydon,,E05011466,Coulsdon Town,,-0.15018325865178211,51.319168253439024,529003.8021360994,159408.82705134634,08/25/2019
Plough on the Pond,774 London Road,Thornton Heath,,E09000008,Croydon,,E05011488,West Thornton,,-0.11410289203598241,51.39440337434484,531302.79346615,167839.0169521866,08/25/2019
Railway Telegraph,19 Brigstock Road,Thornton Heath,,E09000008,Croydon,,E05011464,Bensham Manor,,-0.10155696687897788,51.39779797899061,532165.7956103678,168239.02990654932,08/25/2019
Welcome Inn,300 Parchmore Road,Thornton Heath,,E09000008,Croydon,,E05011486,Thornton Heath,,-0.10448903018784793,51.40684703255843,531935.8133498935,169240.01798064692,08/25/2019
Prince George,2 High Street,Thornton Heath,,E09000008,Croydon,,E05011486,Thornton Heath,,-0.09363213090847781,51.398235829453135,532715.792468183,168302.02680742915,08/25/2019
Elliotts,5 High Street,Purley,,E09000008,Croydon,,E05011476,Purley & Woodcote,,-0.11569840976422631,51.33840381152498,531351.8094709426,161608.96395637686,08/25/2019
Jolly Farmers,7 Purley Road,Purley,,E09000008,Croydon,,E05011476,Purley & Woodcote,,-0.11624511907960865,51.338025901912616,531314.8092924117,161565.96232612894,08/25/2019
Foxley Hatch,8-9 Russell Hill Road,Purley,,E09000008,Croydon,,E05011476,Purley & Woodcote,,-0.11762985627659095,51.33927119193182,531214.805915858,161701.9633461921,08/25/2019
Pear Tree,908 Brighton Road,Purley,,E09000008,Croydon,,E05011476,Purley & Woodcote,,-0.11565125623626796,51.33955415129068,531351.8080489684,161736.96652987995,08/25/2019
Kenley Hotel,62 Godstone Road,Kenley,,E09000008,Croydon,,E05011469,Kenley,,-0.10047507748269979,51.325657856816036,532448.8365665602,160218.9584379806,08/25/2019
Wattenden Arms,5 Old Lodge Lane,Kenley,,E09000008,Croydon,,E05011469,Kenley,,-0.10288787722366496,51.30752187732649,532332.8714164222,158197.8917314353,08/25/2019
Whistler's Bar,Croydon Park Hotel 7 Altyre Road,Croydon,,E09000008,Croydon,,E05011463,Addiscombe West,,-0.09125848848121525,51.37306234125689,532953.7879063628,165507.0111049413,08/25/2019
Alma,10 Alma Road,Sidcup,Sidcup,E09000004,Bexley,,E05011230,Sidcup,,0.1033243023467555,51.43214172320062,546307.8281289376,172447.0513852872,08/25/2019
White Cross,146 Northcray Road,Bexley,North Cray,E09000004,Bexley,,E05011229,St. Mary's & St. James,,0.13880084246159452,51.430258656623295,548779.8181135206,172309.05468689709,08/25/2019
Seven Stars,400 Footscray  High Street,Sidcup,Foots Cray,E09000004,Bexley,,E05011230,Sidcup,,0.1187094470559505,51.41858173999382,547420.8141335016,170970.0199527411,08/25/2019
Star at Sidcup Place,"Sidcup Place, Chislehurst Road",Sidcup,Sidcup,E09000004,Bexley,,E05011230,Sidcup,,0.10255221212439612,51.42504206220737,546276.8196191536,171656.03825595294,08/25/2019
Tailor's Chalk,47-49 High Street,Sidcup,Sidcup,E09000004,Bexley,,E05011230,Sidcup,,0.10365427407794241,51.42617339895003,546349.820758584,171784.0405131044,08/25/2019
Hopper's Hut,1 Invicta Parade. Sidcup High Street,Sidcup,Sidcup,E09000004,Bexley,,E05011230,Sidcup,,0.10675590811759889,51.424489929232834,546570.8184442949,171603.03683508438,08/25/2019
Hill Top Tap,"7-8 Elm Parade, Main Road",Sidcup,Sidcup,E09000004,Bexley,,E05011230,Sidcup,,0.10017760640975558,51.426271727500946,546107.8215520084,171788.04057927645,08/25/2019
Horse & Groom,136 Main Road,Sidcup,Sidcup,E09000004,Bexley,,E05011227,Longlands,,0.09387635370685896,51.42720286471233,545666.8219143663,171879.04378173262,08/25/2019
Charcoal,299 Main Road,Sidcup,Sidcup,E09000004,Bexley,,E05011227,Longlands,,0.08576751284738582,51.430459064458134,545092.8266978908,172225.0504297788,08/25/2019
Bear & Ragged Staff,2 London Road,Crayford,Crayford,E09000004,Bexley,,E05011222,Crayford,,0.176533954730004,51.451983688641945,551330.8505889855,174802.07781813113,08/25/2019
One Bell,170 Old Road,Crayford,Crayford,E09000004,Bexley,,E05011222,Crayford,,0.1746204600269476,51.45381779534402,551191.8514578503,175002.07722937712,08/25/2019
Duke's Head,53 Crayford High Street,Crayford,Crayford,E09000004,Bexley,,E05011222,Crayford,,0.1762153536561533,51.45345546078817,551303.8520184759,174965.07788507274,08/25/2019
Crayford Arms,37 Crayford High Street,Crayford,Crayford,E09000004,Bexley,,E05011222,Crayford,,0.17739867487654515,51.4523093651099,551389.8516162205,174840.07820217777,08/25/2019
Penny Farthing,3 Waterside,Crayford,Dartford,E09000004,Bexley,,E05011222,Crayford,,0.178477669515047,51.4522983129489,551464.8524360968,174841.07862291747,08/25/2019
Hackney Carriage,165 Station Road,Sidcup,,E09000004,Bexley,,E05011220,Blackfen & Lamorbey,,0.10195606235549844,51.43524188160511,546202.8336974287,172789.05538935697,08/25/2019
Iron Horse,122 Station Road,Sidcup,Sidcup,E09000004,Bexley,,E05011220,Blackfen & Lamorbey,,0.1025696128052599,51.43481720040214,546246.8325638182,172743.05516704486,08/25/2019
Halfway House,188c Halfway Street,Sidcup,Halfway,E09000004,Bexley,,E05011220,Blackfen & Lamorbey,,0.08721745935728364,51.44111689656534,545159.8446592744,173413.0610834888,08/25/2019
Black Boy,Southspring,Sidcup,Avery Hill,E09000011,Greenwich,,E05000219,Eltham South,,0.08478982251965633,51.44500008642721,544978.8482221499,173840.06402085285,08/25/2019
Olde Black Horse,43 Halfway Street,Sidcup,Lamorbey,E09000004,Bexley,,E05011220,Blackfen & Lamorbey,,0.09800868769086105,51.43732703097848,545921.8395557413,173013.056651888,08/25/2019
George Staples,273 Blackfen Road,Blackfen,,E09000004,Bexley,,E05011220,Blackfen & Lamorbey,,0.10058822053173049,51.45120194053276,546056.8679802897,174561.0694291796,08/25/2019
Jolly Fenman,64-68 Blackfen Road,Sidcup,Blackfen,E09000004,Bexley,,E05011220,Blackfen & Lamorbey,,0.09218254332389636,51.4515141430921,545471.8621103908,174579.0691147672,08/25/2019
Hangar,37 The Oval,Sidcup,Blackfen,E09000004,Bexley,,E05011221,Blendon & Penhill,,0.10243860765495696,51.445116506391855,546204.8551066018,173888.06451231497,08/25/2019
Broken Drum,308 Westwood Lane,Blackfen,,E09000004,Bexley,,E05011220,Blackfen & Lamorbey,,0.10321764446287447,51.45173033758464,546237.8689784096,174625.06975161133,08/25/2019
Wings Sports Bar,Welling United FC.  Park View Road,Welling,Welling,E09000004,Bexley,,E05011226,Falconwood & Welling,,0.11601320766372782,51.46043906251152,547098.8925294101,175619.0782010962,08/25/2019
"Guy, Earl Of Warwick",Park View Road,Welling,Welling,E09000004,Bexley,,E05011226,Falconwood & Welling,,0.11547926585231824,51.4610332428127,547059.8938666317,175684.0788063103,08/25/2019
Wrong 'Un,234-236 Broadway,Bexleyheath,,E09000004,Bexley,,E05011219,Bexleyheath,,0.1374124547181311,51.45782053935422,548593.8729150898,175371.07333550038,08/25/2019
Rose & Crown,15 Welling High Street,Welling,Welling,E09000004,Bexley,,E05011226,Falconwood & Welling,,0.11261683460371465,51.46202013047176,546857.8935509222,175788.0794687671,08/25/2019
Door Hinge,"11, Welling High Street",Welling,,E09000004,Bexley,,E05011226,Falconwood & Welling,,0.11261683460371465,51.46202013047176,546857.8935509222,175788.0794687671,08/25/2019
Nags Head,37 Welling High Street,Welling,Welling,E09000004,Bexley,,E05011226,Falconwood & Welling,,0.11261683460371465,51.46202013047176,546857.8935509222,175788.0794687671,08/25/2019
Foresters Arms,344 Upper Wickham Lane,Welling,East Wickham,E09000004,Bexley,,E05011224,East Wickham,,0.10945930925739357,51.47471206358382,546597.9054137972,177193.0890253028,08/25/2019
Green Man,168 Wickham Street,Welling,East Wickham,E09000004,Bexley,,E05011224,East Wickham,,0.09219548114549035,51.46690079935979,545423.8778322602,176290.08022008132,08/25/2019
New Cross Turnpike,55 Bellegrove Road,Welling,Welling,E09000004,Bexley,,E05011226,Falconwood & Welling,,0.10438982111565483,51.462815590867926,546283.8869322282,175860.07911088027,08/25/2019
Plough & Harrow,143 Bellegrove Road,Welling,Welling,E09000004,Bexley,,E05011226,Falconwood & Welling,,0.10046037596931948,51.463461607448636,546008.8838153109,175924.07908222033,08/25/2019
We Anchor In Hope,320 Bellegrove Road,Welling,Welling,E09000004,Bexley,,E05011224,East Wickham,,0.08560289643677305,51.46630782095176,544967.8696384598,176211.07863729203,08/25/2019
Prince of Wales,13a Woolwich Road,Belvedere,Upper Belvedere,E09000004,Bexley,,E05011218,Belvedere,,0.14224864879005147,51.48360509585227,548845.941920538,178248.09926512616,08/25/2019
Eardley Arms,44 Woolwich Road,Belvedere,Upper Belvedere,E09000004,Bexley,,E05011218,Belvedere,,0.14078406819062148,51.484009551218485,548742.9425296538,178290.09956847783,08/25/2019
Royal Standard,39 Nuxley Road,Belvedere,Upper Belvedere,E09000004,Bexley,,E05011218,Belvedere,,0.14574118257880472,51.4819134987142,549093.9380303762,178067.097520161,08/25/2019
Fox,79 Nuxley Road,Belvedere,Upper Belvedere,E09000004,Bexley,,E05011218,Belvedere,,0.144595153207617,51.4811250993597,549016.9359581303,177977.0967389305,08/25/2019
Village Inn,104 Nuxley Road,Belvedere,Upper Belvedere,E09000004,Bexley,,E05011218,Belvedere,,0.14343356464858745,51.48000423338254,548939.9332107058,177850.09565577452,08/25/2019
Victoria,2 Victoria Street,Belvedere,Upper Belvedere,E09000004,Bexley,,E05011218,Belvedere,,0.14196578354599906,51.48218038103076,548830.9385114466,178089.09786827693,08/25/2019
Halfway House,165 Lower Road,Belvedere,Belvedere,E09000004,Bexley,,E05011218,Belvedere,,0.16141344030785015,51.49048372739322,550153.9433792422,179052.1068761468,08/25/2019
Morgan,1 Clydesdale Way,Belvedere,Belvedere,E09000004,Bexley,,E05011218,Belvedere,,0.15639082465354895,51.49698824934261,549783.9728041359,179765.11843311624,08/25/2019
Great Harry,99 Parsonage Manor Way,Belvedere,Belvedere,E09000004,Bexley,,E05011228,Northumberland Heath,,0.14837192146156464,51.477521703984635,549290.9254914301,177584.09267268376,08/25/2019
Kings Head,65 Bexley High Street,Bexley,Bexley,E09000004,Bexley,,E05011229,St. Mary's & St. James,,0.15001673146361727,51.4417804134207,549521.8285479588,173613.07192825963,08/25/2019
Tanyard Lane,61-63 Bexley High Street,Bexley,Bexley,E09000004,Bexley,,E05011229,St. Mary's & St. James,,0.15001673146361727,51.4417804134207,549521.8285479588,173613.07192825963,08/25/2019
Railway Tavern,38 Bexley High Street,Bexley,Bexley,E09000004,Bexley,,E05011229,St. Mary's & St. James,,0.14908772894859568,51.441302832707464,549458.8281808444,173558.0712524252,08/25/2019
George,74 Bexley High Street,Bexley,Bexley,E09000004,Bexley,,E05011229,St. Mary's & St. James,,0.15009286401742963,51.441563184624385,549527.8282451169,173589.0718032542,08/25/2019
Three Blackbirds,118 Blendon Road,Bexley,Blendon,E09000004,Bexley,,E05011221,Blendon & Penhill,,0.12257319102298031,51.44825187665195,547593.8553864971,174277.06653421483,08/25/2019
Anchor,23-31 Bridgen Road,Bexley,Bridgen,E09000004,Bexley,,E05011221,Blendon & Penhill,,0.13384721090887153,51.44527734982473,548386.8413227097,173969.06644076377,08/25/2019
Millers Arms,81 Bexley High Street,Bexley,Bexley,E09000004,Bexley,,E05011229,St. Mary's & St. James,,0.1518076175599189,51.44100113213624,549648.8270660047,173530.07201402285,08/25/2019
Traders,"Holiday Inn, Southwold Road",Bexley,Bexley,E09000004,Bexley,,E05011229,St. Mary's & St. James,,0.15411868254796832,51.44638143688365,549791.8353832406,174133.0721259222,08/25/2019
Black Horse,63 Albert Road,Bexley,Bexley,E09000004,Bexley,,E05011229,St. Mary's & St. James,,0.14993994933878707,51.44535201826003,549504.835001356,174010.0710455267,08/25/2019
Miller & Carter,Hall Place,Bexley,Hall Place,E09000004,Bexley,,E05011222,Crayford,,0.1602553990405088,51.44803112560768,550212.8359038531,174329.07347979175,08/25/2019
Albany,13 Steynton Avenue,Bexley,Albany Park,E09000004,Bexley,,E05011221,Blendon & Penhill,,0.1277589744645516,51.43628715797304,547992.8269033241,172957.06358648784,08/25/2019
Kings Arms,156 Broadway,Bexleyheath,Bexleyheath,E09000004,Bexley,,E05011219,Bexleyheath,,0.1434604985300301,51.45694569108361,549016.8660981772,175286.07203424542,08/25/2019
Carved,146 Broadway,Bexleyheath,Bexleyheath,E09000004,Bexley,,E05011219,Bexleyheath,,0.1434604985300301,51.45694569108361,549016.8660981772,175286.07203424542,08/25/2019
Furze Wren,"6 Market Place, Broadway Square",Bexleyheath,,E09000004,Bexley,,E05011219,Bexleyheath,,0.1466132202257289,51.45664518458154,549236.8630473281,175259.07156743086,08/25/2019
Rose,179 Broadway,Bexleyheath,Bexleyheath,E09000004,Bexley,,E05011219,Bexleyheath,,0.14078411320600873,51.45696762455355,548830.8680552696,175283.07231758744,08/25/2019
Brewers Fayre,51 Albion Road,Bexleyheath,Bexleyheath,E09000004,Bexley,,E05011219,Bexleyheath,,0.14202518738524786,51.45519131911549,548922.8621842525,175088.07104419818,08/25/2019
Marriott Hotel,1 Broadway,Bexleyheath,Bexleyheath,E09000004,Bexley,,E05011219,Bexleyheath,,0.15218167398633542,51.455068230915046,549628.8554966834,175095.07117319928,08/25/2019
Prince Albert,2 Broadway,Bexleyheath,Bexleyheath,E09000004,Bexley,,E05011219,Bexleyheath,,0.1527044967014519,51.45547230740127,549663.8562596021,175141.07134485344,08/25/2019
Twin Palace,6-8 Broadway,Bexleyheath,Bexleyheath,E09000004,Bexley,,E05011219,Bexleyheath,,0.1527044967014519,51.45547230740127,549663.8562596021,175141.07134485344,08/25/2019
Frankie & Benny's,28-30 Broadway,Bexleyheath,Bexleyheath,E09000004,Bexley,,E05011219,Bexleyheath,,0.14998418285968407,51.45608878955474,549472.8593991078,175204.07128967188,08/25/2019
Coach House,40 Watling Street,Bexleyheath,Bexleyheath,E09000004,Bexley,,E05011219,Bexleyheath,,0.154728929839963,51.45505740828325,549805.8540841835,175099.071480688,08/25/2019
Golden Lion,258 Broadway,Bexleyheath,Bexleyheath,E09000004,Bexley,,E05011223,Crook Log,,0.13553755655073402,51.45805255977101,548462.8749539215,175393.07377397123,08/25/2019
Crook Log,Crook Log,Bexleyheath,Crook Log,E09000004,Bexley,,E05011223,Crook Log,,0.12724543027610602,51.45896774742069,547883.8831447014,175478.07566246082,08/25/2019
Danson Stables,Danson Park,Bexleyheath,Crook Log,E09000004,Bexley,,E05011223,Crook Log,,0.12260556354980953,51.45576942101755,547571.8766490085,175113.0728692569,08/25/2019
Royal Oak,66 Mount Road,Bexleyheath,Bexleyheath,E09000004,Bexley,,E05011223,Crook Log,,0.12938889935714448,51.45213911598672,548054.8615322129,174723.06866630074,08/25/2019
Celebrations @ Bexley,59 Lion Road,Bexleyheath,Bexleyheath,E09000004,Bexley,,E05011223,Crook Log,,0.13616462489744896,51.45637743018366,548511.869603131,175208.07228820678,08/25/2019
Robin Hood & Little John,78 Lion Road,Bexleyheath,,E09000004,Bexley,,E05011223,Crook Log,,0.13596475339842848,51.454564488219575,548503.8644392878,175006.0707767686,08/25/2019
Volunteer,46 Church Road,Bexleyheath,Bexleyheath,E09000004,Bexley,,E05011219,Bexleyheath,,0.13781862755425875,51.460349157773514,548613.8802789464,175653.075727879,08/25/2019
William Camden,91 Avenue Road,Bexleyheath,Bexleyheath,E09000004,Bexley,,E05011223,Crook Log,,0.1318588667700515,51.46220234837273,548193.8905386485,175847.0788180055,08/25/2019
Jolly Millers,111 Mayplace Road West,Bexleyheath,Bexleyheath,E09000004,Bexley,,E05011219,Bexleyheath,,0.15219563865519325,51.45842235109581,549618.8642202431,175468.07214067876,08/25/2019
Kentish Belle,8 Pickford Lane,Bexleyheath,Bexleyheath,E09000004,Bexley,,E05011223,Crook Log,,0.13306626602353389,51.46432071612002,548270.8962697792,176085.08097248577,08/25/2019
Yacht,167 Long Lane,Bexleyheath,Bexleyheath,E09000004,Bexley,,E05011219,Bexleyheath,,0.14565472687742523,51.46597049342986,549139.8919103049,176294.08032084256,08/25/2019
Traveller's Home,60-66 Long Lane,Bexleyheath,Bexleyheath,E09000004,Bexley,,E05011219,Bexleyheath,,0.15195834472741931,51.4625545000957,549588.8768338525,175927.07590507262,08/25/2019
Earl Haig,The Pantiles,Bexleyheath,Bexleyheath,E09000004,Bexley,,E05011233,West Heath,,0.14055562785376935,51.472988331199375,548762.9162198969,177064.08883626305,08/25/2019
Red Barn,Barnehust Road,Bexleyheath,Barnehurst,E09000004,Bexley,,E05011217,Barnehurst,,0.15832628206622226,51.46570188375116,550020.8819715184,176290.07809930405,08/25/2019
Bird & Barrel,100 Barnehurst Road,Bexleyheath,Barnehurst,E09000004,Bexley,,E05011217,Barnehurst,,0.15832628206622226,51.46570188375116,550020.8819715184,176290.07809930405,08/25/2019
Ship,110 West Street,Erith,Erith,E09000004,Bexley,,E05011225,Erith,,0.17214253927046094,51.48558204614587,550914.9118760619,178529.0951924132,08/25/2019
Duchess Of Kent,143 Brook Street,Erith,Northumberland Heath,E09000004,Bexley,,E05011228,Northumberland Heath,,0.15714180360179125,51.47415912821122,549910.9055798443,177228.08607252542,08/25/2019
Brewer's Arms,22 Brook Street,Erith,Northumberland Heath,E09000004,Bexley,,E05011228,Northumberland Heath,,0.1599919021273757,51.47230804188817,550114.8978074117,177028.08353986347,08/25/2019
Running Horses,23 Erith High Street,Erith,Erith,E09000004,Bexley,,E05011225,Erith,,0.1810293912058491,51.48165792846115,551544.8868136747,178111.08566247468,08/25/2019
Corner Pin,Slade Green Road,Erith,Slade Green,E09000004,Bexley,,E05011231,Slade Green & Northend,,0.19281659001046905,51.47157271606765,552396.8785972568,177014.07995648362,08/25/2019
Royal Oak,270 Bexley Road,Erith,Northumberland Heath,E09000004,Bexley,,E05011228,Northumberland Heath,,0.16187581047044455,51.47256108694515,550244.8964775245,177060.0832078937,08/25/2019
Pepper's Ghost,777 High Road,Leyton,London,E09000031,Waltham Forest,,E05000604,Leyton,,-0.008745980171295374,51.57299318403889,538091.9126592616,187892.2655573818,08/25/2019
Lion & Key Hotel,475 High Road,Leyton,London,E09000031,Waltham Forest,,E05000604,Leyton,,-0.011290930733620766,51.56427755588308,537941.9212491729,186918.26429980627,08/25/2019
Coach & Horses,391 High Road,Leyton,London,E09000031,Waltham Forest,,E05000604,Leyton,,-0.010178601139149477,51.561003354485116,538028.9213039884,186556.261684302,08/25/2019
Leyton Technical,"265B High Road, Leyton",Leyton,London,E09000031,Waltham Forest,,E05000604,Leyton,,-0.00818927078683036,51.55931494918356,538171.92069971,186372.26036430872,08/25/2019
William the Fourth,816 High Road Leyton,Leyton,London,E09000031,Waltham Forest,,E05000595,Forest,,-0.011141295062134796,51.57465248785784,537920.9117389218,188072.26729056367,08/25/2019
Signature Brewery Tap,"Unit 25, Leyton Business Centre, Etloe Road",Leyton,,E09000031,Waltham Forest,,E05000604,Leyton,,-0.022084503297371848,51.564253136335125,537193.9171003528,186895.2598418225,08/25/2019
Bootlaces,596 Lea Bridge Road,Leyton,London,E09000031,Waltham Forest,,E05000603,Lea Bridge,,-0.013764413773624426,51.57440018068755,537739.9131419172,188039.26915013354,08/25/2019
Drum,557-559 Lea Bridge Road,Leyton,London,E09000031,Waltham Forest,,E05000603,Lea Bridge,,-0.013514810905804748,51.575160324122066,537754.9121048478,188124.26915139798,08/25/2019
Hare & Hounds,282 Lea Bridge Road,Leyton,London,E09000031,Waltham Forest,,E05000603,Lea Bridge,,-0.02787538609237089,51.569143619818455,536777.8968821771,187428.25633850758,08/25/2019
George Tavern,373 Commercial Road,London,Stepney,E09000030,Tower Hamlets,,E05009334,Stepney Green,,-0.05288586523792064,51.514346279818035,535206.855930645,181288.18366398592,08/25/2019
Peacock,145 Aylward Street,London,Stepney,E09000030,Tower Hamlets,,E05009334,Stepney Green,,-0.046306659171060284,51.515855564002706,535658.8663982003,181468.1862855293,08/25/2019
Walnut Tree,857-861 High Road,Leytonstone,London,E09000031,Waltham Forest,,E05000605,Leytonstone,,0.01222780268994295,51.56952370516946,539555.8928268919,187546.23980037513,08/25/2019
Sir Alfred Hitchcock Hotel,145 Whipps Cross Road,Leytonstone,London,E09000031,Waltham Forest,,E05000595,Forest,,0.011880716361192435,51.57637297405451,539510.8823991887,188307.23343426123,08/25/2019
Eagle,73 Hollybush Hill,Wanstead,Snaresbrook,E09000026,Redbridge,,E05011255,Wanstead Village,,0.020724545686585043,51.58314501740236,540102.8478302257,189077.2001091551,08/25/2019
Cuckfield,31 High Street,Wanstead,London,E09000026,Redbridge,,E05011255,Wanstead Village,,0.024394657827510432,51.57965560104021,540367.8527814269,188696.20297051006,08/25/2019
Duke,79 Nightingale Lane,Wanstead,London,E09000026,Redbridge,,E05011255,Wanstead Village,,0.028088432143326316,51.58222655186922,540615.8408263605,188989.1914839173,08/25/2019
Nightingale on the Green,51 Nightingale Lane,Wanstead,London,E09000026,Redbridge,,E05011255,Wanstead Village,,0.028088432143326316,51.58222655186922,540615.8408263605,188989.1914839173,08/25/2019
Palm Tree,127 Grove Road,Bow,London,E09000030,Tower Hamlets,,E05009320,Bow West,,-0.03893220044049923,51.529149530043526,536130.8969760995,182960.1928461775,08/25/2019
Luppolo,36-38 High Street Wanstead,Wanstead,London,E09000026,Redbridge,,E05011255,Wanstead Village,,0.027345545984796372,51.576232445944505,540582.8573107489,188321.2055203262,08/25/2019
George,159 High Street Wanstead,Wanstead,London,E09000026,Redbridge,,E05011255,Wanstead Village,,0.027951188400465173,51.57654569881996,540623.8555057853,188357.20374223212,08/25/2019
Manor House,129 High St,Wanstead,,E09000026,Redbridge,,E05011255,Wanstead Village,,0.027951188400465173,51.57654569881996,540623.8555057853,188357.20374223212,08/25/2019
Red Lion,640 High Road Leytonstone,Leytonstone,London,E09000031,Waltham Forest,,E05000605,Leytonstone,,0.01155134356320081,51.568582103457736,539511.8950960322,187440.24160243507,08/25/2019
Birds,692 High Road,Leytonstone,London,E09000031,Waltham Forest,,E05000605,Leytonstone,,0.01155134356320081,51.568582103457736,539511.8950960322,187440.24160243507,08/25/2019
North Star,24 Browning Road,Leytonstone,London,E09000031,Waltham Forest,,E05000605,Leytonstone,,0.01551558618246689,51.569799951265395,539782.8875488046,187583.23416022793,08/25/2019
O'Neill's,762 High Street,Leytonstone,London,E09000031,Waltham Forest,,E05000605,Leytonstone,,0.014409965532740461,51.570250596766975,539704.8885871825,187631.23565014958,08/25/2019
Bell,468 High Road,Leytonstone,London,E09000031,Waltham Forest,,E05000590,Cann Hall,,0.008743208966648647,51.560851630231134,539340.9031199696,186575.24491696176,08/25/2019
Leytonstone Tavern,119 Harrow Road,Leytonstone,London,E09000031,Waltham Forest,,E05000590,Cann Hall,,0.012496855832117225,51.55927648700279,539605.8985723786,186407.23871591926,08/25/2019
Heathcote & Star,344 Grove Green Road,Leytonstone,London,E09000031,Waltham Forest,,E05000596,Grove Green,,0.0028431328455300296,51.56513415566049,538918.9099296429,187040.2555071658,08/25/2019
Northcote Arms,110 Grove Green Rd,Leyton,London,E09000031,Waltham Forest,,E05000596,Grove Green,,-0.001271700299818771,51.560465261496915,538647.9169043376,186513.25999019487,08/25/2019
Birkbeck Tavern,45 Langthorne Road,Leytonstone,London,E09000031,Waltham Forest,,E05000591,Cathall,,0.0006722093003529753,51.55610663903836,538795.9152989154,186032.25514385029,08/25/2019
Plough & Harrow,419 High Road,Leytonstone,London,E09000031,Waltham Forest,,E05000591,Cathall,,0.006473774284329534,51.55812975111253,539191.9070387146,186268.2473473986,08/25/2019
Shepherd's Inn,483 High Road,Leytonstone,London,E09000031,Waltham Forest,,E05000591,Cathall,,0.007137768735172949,51.559449297172705,539233.9057715693,186416.246872165,08/25/2019
Urban Bar,176 Whitechapel Road,London,Whitechapel,E09000030,Tower Hamlets,,E05009336,Whitechapel,,-0.0573006114465433,51.519320516725166,534885.8581501876,181833.19053476653,08/25/2019
Blind Beggar,337 Whitechapel Road,London,Whitechapel,E09000030,Tower Hamlets,,E05009333,Spitalfields & Banglatown,,-0.05763125942258266,51.52001842733435,534860.8588507529,181910.19105417718,08/25/2019
Indo,133 Whitechapel Road,London,Whitechapel,E09000030,Tower Hamlets,,E05009333,Spitalfields & Banglatown,,-0.06610198401710757,51.51775745494459,534279.8434062416,181643.19953538472,08/25/2019
Stable,16-18 Whitechapel Rd,Whitechapel,,E09000030,Tower Hamlets,,E05009336,Whitechapel,,-0.06764412588176862,51.51673973408179,534175.8398019238,181527.19974834652,08/25/2019
Castle,44 Commercial Road,London,Whitechapel,E09000030,Tower Hamlets,,E05009336,Whitechapel,,-0.06932542321110356,51.514816026510516,534064.8345123176,181310.1992789075,08/25/2019
Dog & Truck,72 Back Church Lane,London,Whitechapel,E09000030,Tower Hamlets,,E05009336,Whitechapel,,-0.06685903302117237,51.51315668749725,534240.8354834084,181130.19408236002,08/25/2019
Blakesley Arms,53 Station Road,Manor Park,London,E09000025,Newham,,E05000488,Manor Park,,0.04686418326902072,51.55163105297011,542011.8598215249,185623.16922238056,08/25/2019
Golden Fleece,166 Capel Road,Manor Park,London,E09000025,Newham,,E05000488,Manor Park,,0.04508182916612242,51.55466576556009,541878.8593461388,185957.17751961935,08/25/2019
William The Conqueror,628-630 Romford Road,Manor Park,London,E09000026,Redbridge,,E05011254,Wanstead Park,,0.03703928041878503,51.562566549394745,541296.8631087363,186820.19960127672,08/25/2019
Good Samaritan,87 Turner Street,London,Whitechapel,E09000030,Tower Hamlets,,E05009336,Whitechapel,,-0.06114718980246904,51.51733388652048,534624.8495539916,181605.19411661144,08/25/2019
Hungerford Arms,240 Commercial Road,London,Whitechapel,E09000030,Tower Hamlets,,E05009332,Shadwell,,-0.05824365308654132,51.5144351474905,534834.8489169211,181288.188377192,08/25/2019
Thomas Neale,39 Watney Market,London,Whitechapel,E09000030,Tower Hamlets,,E05009332,Shadwell,,-0.056652505285432704,51.51355447649204,534947.8496350719,181193.1861512012,08/25/2019
Dean Swift,2 Deancross Street,London,Whitechapel,E09000030,Tower Hamlets,,E05009332,Shadwell,,-0.05520307518486031,51.51374626438707,535047.8518689838,181217.18512033112,08/25/2019
Black Lion,59-61 High Street,Plaistow,London,E09000025,Newham,,E05000489,Plaistow North,,0.020751985393176253,51.53102321548148,540264.9003617412,183281.20147987182,08/25/2019
Victoria Tavern,28 High Street,Plaistow,London,E09000025,Newham,,E05000489,Plaistow North,,0.021857157447764914,51.5299340012775,540344.9001434227,183162.19694097643,08/25/2019
Lamb,85 Pelly Road,Plaistow,London,E09000025,Newham,,E05000489,Plaistow North,,0.021665754700704046,51.53375025334404,540319.8974036195,183586.20346014202,08/25/2019
Red House,299 Barking Road,Plaistow,London,E09000025,Newham,,E05000477,Canning Town North,,0.01784249816730824,51.52032692565204,540095.9083791445,182086.18744580972,08/25/2019
Charlie's Bar,247 Barking Road,Plaistow,,E09000025,Newham,,E05000477,Canning Town North,,0.01784249816730824,51.52032692565204,540095.9083791445,182086.18744580972,08/25/2019
Abbey,384 Barking Road,Plaistow,London,E09000025,Newham,,E05000478,Canning Town South,,0.02084818726844917,51.52114741833772,540301.9057615895,182183.18203804648,08/25/2019
Army & Navy,36 New Barn Street,Plaistow,London,E09000025,Newham,,E05000478,Canning Town South,,0.02315628898020202,51.52151225444534,540460.9037655494,182228.1771573571,08/25/2019
Lord Stanley,15 St Mary's Road,Plaistow,London,E09000025,Newham,,E05000489,Plaistow North,,0.024706150182107395,51.53143155502195,540537.8962701262,183334.1920674162,08/25/2019
Queens,410 Green Street,Plaistow,London,E09000025,Newham,,E05000476,Boleyn,,0.035270106260131724,51.534243116174814,541261.8847726943,183667.1720187791,08/25/2019
Manor Arms,150 East India Dock Road,Poplar,London,E09000030,Tower Hamlets,,E05009328,Poplar,,-0.01567855017587804,51.5108809709117,537798.8902423253,180972.1814179186,08/25/2019
Greenwich Pensioner,28 Bazeley Street,Poplar,London,E09000030,Tower Hamlets,,E05009328,Poplar,,-0.010566479457414431,51.50979610238635,538156.8906696759,180861.17285820597,08/25/2019
Hope & Anchor,14 Newby Place,Poplar,London,E09000030,Tower Hamlets,,E05009328,Poplar,,-0.01259759452114895,51.51047805425668,538013.8911160941,180933.17766213266,08/25/2019
Ship,290 Westferry Road,Isle of Dogs,Mudchute,E09000030,Tower Hamlets,,E05009324,Island Gardens,,-0.018600393648370003,51.48806131245216,537664.8413994893,178429.10358740238,08/25/2019
Great Eastern,1 Glenaffric Avenue,Isle of Dogs,Mudchute,E09000030,Tower Hamlets,,E05009324,Island Gardens,,-0.006385013088908385,51.488735556526464,538510.8347942256,178527.1046831599,08/25/2019
Ferry House,26 Ferry Street,Isle of Dogs,Mudchute,E09000030,Tower Hamlets,,E05009324,Island Gardens,,-0.01253599274760918,51.486411901094975,538090.8335454338,178257.09959680378,08/25/2019
George,114 Glengall Grove,Isle of Dogs,Crossharbour,E09000030,Tower Hamlets,,E05009318,Blackwall & Cubitt Town,,-0.011943971739219187,51.495709485902424,538103.8556606441,179292.1204727926,08/25/2019
Ledger Building,4 Hertsmere Road,Canary Wharf,London,E09000030,Tower Hamlets,,E05009323,Canary Wharf,,-0.02383270037295962,51.50761933319317,537242.8763861645,180594.1705971203,08/25/2019
Sipping Room,16 Hertsmere Road,Isle of Dogs,Canary Wharf,E09000030,Tower Hamlets,,E05009323,Canary Wharf,,-0.022612190118463518,51.50751781924165,537327.8774013647,180585.1697580046,08/25/2019
Browns,"Unit A Hertsmere Road, West India Quay",Isle of Dogs,Canary Wharf,E09000030,Tower Hamlets,,E05009323,Canary Wharf,,-0.022612190118463518,51.50751781924165,537327.8774013647,180585.1697580046,08/25/2019
Burger & Lobster,"Unit C, 2 Port East Building,",Isle of Dogs,Canary Wharf,E09000030,Tower Hamlets,,E05009323,Canary Wharf,,-0.022612190118463518,51.50751781924165,537327.8774013647,180585.1697580046,08/25/2019
Merchant,"25-27 Fishermans Walk, Building FC2",Isle of Dogs,Canary Wharf,E09000030,Tower Hamlets,,E05009323,Canary Wharf,,-0.021687528779707754,51.50591046460606,537396.87503952,180408.16305615095,08/25/2019
Davy's,31-35 Fishermans Walk,Isle of Dogs,Canary Wharf,E09000030,Tower Hamlets,,E05009323,Canary Wharf,,-0.021687528779707754,51.50591046460606,537396.87503952,180408.16305615095,08/25/2019
Limehouse,10 Cabot Square - Fishermans Walk,Isle of Dogs,Canary Wharf,E09000030,Tower Hamlets,,E05009323,Canary Wharf,,-0.021687528779707754,51.50591046460606,537396.87503952,180408.16305615095,08/25/2019
Pagination,9 Cabot Square,Isle of Dogs,Canary Wharf,E09000030,Tower Hamlets,,E05009323,Canary Wharf,,-0.021675880763054343,51.5051818369126,537399.8735614618,180327.16017130448,08/25/2019
Henry Addington,22-28 Mackenzie Walk,Canary Wharf,London,E09000030,Tower Hamlets,,E05009323,Canary Wharf,,-0.022050673336500647,51.504513688473494,537375.871840239,180252.15784251865,08/25/2019
Slug & Lettuce,"51-55 Mackenzie Walk, 30 South Colonnade",Isle of Dogs,Canary Wharf,E09000030,Tower Hamlets,,E05009323,Canary Wharf,,-0.023853687573075193,51.50480489435387,537249.8707146414,180281.1603901451,08/25/2019
Parlour,"Park Pavilion, 40 Canada Sqare",Isle of Dogs,Canary Wharf,E09000030,Tower Hamlets,,E05009323,Canary Wharf,,-0.019496145868443407,51.50493819138779,537551.875146397,180304.15754234564,08/25/2019
Sports Bar & Grill,1 Crossrail Place,Isle of Dogs,Canary Wharf,E09000030,Tower Hamlets,,E05009323,Canary Wharf,,-0.018260388646663933,51.50618532231073,537633.8789477274,180445.1621484906,08/25/2019
All Bar One,42 McKenzie Walk,Isle of Dogs,Canary Wharf,E09000030,Tower Hamlets,,E05009323,Canary Wharf,,-0.020495585041637523,51.50415469655614,537484.872574388,180215.15507651313,08/25/2019
Brodies (Bar & Kitchen),43 Fishermans Walk,Isle of Dogs,Canary Wharf,E09000030,Tower Hamlets,,E05009323,Canary Wharf,,-0.02008257000929821,51.50570350960537,537508.8761707757,180388.16119245987,08/25/2019
BrewDog Canary Wharf,"Unit 17, 2 Churchill Place",Canary Wharf,,E09000030,Tower Hamlets,,E05009323,Canary Wharf,,-0.014415527589499067,51.50513102451503,537903.8778885943,180335.15435427544,08/25/2019
Rocket by Balls Brothers,2 Churchill Place,Canary Wharf,,E09000030,Tower Hamlets,,E05009323,Canary Wharf,,-0.014415527589499067,51.50513102451503,537903.8778885943,180335.15435427544,08/25/2019
Festival Inn,71 Grundy Street,Poplar,London,E09000030,Tower Hamlets,,E05009325,Lansbury,,-0.015627297332487584,51.51239093305103,537797.8935334834,181140.18842529703,08/25/2019
Callaghanns,55 Chrisp Street,Poplar,London,E09000030,Tower Hamlets,,E05009325,Lansbury,,-0.014232948965624997,51.512969860724084,537892.8956964416,181207.19066063763,08/25/2019
George IV,7 Ida Street,Poplar,London,E09000030,Tower Hamlets,,E05009325,Lansbury,,-0.011536183994518685,51.51201585832635,538082.8952617503,181106.18488355324,08/25/2019
Crown,667 Commercial Road,Poplar,Limehouse,E09000030,Tower Hamlets,,E05009326,Limehouse,,-0.028706260139762,51.51155931781649,536892.8789594355,181023.18396758306,08/25/2019
Star Of The East,805a Commercial Road,Poplar,Limehouse,E09000030,Tower Hamlets,,E05009327,Mile End,,-0.029158264795849785,51.51243922251427,536858.880117597,181120.1864231687,08/25/2019
Craft Beer Co.,576 Commercial Road,Limehouse,London,E09000030,Tower Hamlets,,E05009332,Shadwell,,-0.04017645268492629,51.5126058493627,536093.8680458516,181118.1838435596,08/25/2019
Queens Head,8 Flamborough Street,Poplar,Limehouse,E09000030,Tower Hamlets,,E05009329,St. Dunstan's,,-0.03883316438990504,51.513680515354224,536183.8714681722,181240.18606934324,08/25/2019
Old Ship,17 Barnes Street,Poplar,Limehouse,E09000030,Tower Hamlets,,E05009329,St. Dunstan's,,-0.03984646118913092,51.51391327859761,536112.8706866247,181264.18614607793,08/25/2019
Prince Regent,81 Salmon Lane,Poplar,Limehouse,E09000030,Tower Hamlets,,E05009329,St. Dunstan's,,-0.03653286368055275,51.51421757227065,536341.8750943516,181304.18785257085,08/25/2019
Grapes,76 Narrow Street,Limehouse,London,E09000030,Tower Hamlets,,E05009326,Limehouse,,-0.03298674872198288,51.50854664206313,536604.8689462701,180680.1761055467,08/25/2019
Narrow,44 Narrow Street-Limehouse Basin,Limehouse,London,E09000030,Tower Hamlets,,E05009326,Limehouse,,-0.03298674872198288,51.50854664206313,536604.8689462701,180680.1761055467,08/25/2019
Tooke Arms,165 West Ferry Road,Isle of Dogs,Millwall,E09000030,Tower Hamlets,,E05009323,Canary Wharf,,-0.025525611347127775,51.498133344272276,537153.8560591859,179536.1402962255,08/25/2019
28West,28 Westferry Circus,Isle of Dogs,Millwall,E09000030,Tower Hamlets,,E05009323,Canary Wharf,,-0.028034672286802103,51.506089344168814,536955.8692170774,180416.1675396877,08/25/2019
Gun,27 Coldharbour,Isle of Dogs,Crossharbour,E09000030,Tower Hamlets,,E05009318,Blackwall & Cubitt Town,,-0.007530951922657475,51.50241521476432,538389.872622563,180046.13659785414,08/25/2019
Pepper Saint Ontiod,21 Pepper Street,Crossharbour,London,E09000030,Tower Hamlets,,E05009323,Canary Wharf,,-0.017446314167940607,51.49639619472402,537719.8589516936,179358.1245948365,08/25/2019
Half Moon,212-223 Mile End Road,London,Stepney,E09000030,Tower Hamlets,,E05009317,Bethnal Green,,-0.045299154134781035,51.52221454647792,535709.8790177688,182177.18722895003,08/25/2019
Horn Of Plenty,36 Globe Road,London,Stepney,E09000030,Tower Hamlets,,E05009317,Bethnal Green,,-0.04641504917664464,51.522412980908086,535631.8780486875,182197.1862243982,08/25/2019
Bancroft Arms,410 Mile End Road,London,Mile End,E09000030,Tower Hamlets,,E05009329,St. Dunstan's,,-0.03999913302035558,51.522773608893985,536075.886360779,182249.1917287414,08/25/2019
White Hart,1-3 Mile End Road,Whitechapel,,E09000030,Tower Hamlets,,E05009317,Bethnal Green,,-0.054509012460255545,51.52056015387122,535075.8642723638,181976.18684126867,08/25/2019
Builders Arms,302 High Street,Stratford,London,E09000025,Newham,,E05000492,Stratford and New Town,,-0.0017565355210650395,51.53854039726035,538680.9206122092,184074.24698022899,08/25/2019
Railway Tavern,131 Angel Lane,Stratford,London,E09000025,Newham,,E05000492,Stratford and New Town,,0.00014531137600867316,51.54508162513324,538792.9179261754,184805.24967049417,08/25/2019
Bar One,7-9 Leytonstone Road,Stratford,London,E09000025,Newham,,E05000492,Stratford and New Town,,0.005502815063245131,51.54687855341455,539158.9108484817,185015.24321402382,08/25/2019
Eagle,157 Chobham Road,Stratford,London,E09000025,Newham,,E05000492,Stratford and New Town,,-0.00044853069108498063,51.54930033151278,538738.9181500793,185273.25339654367,08/25/2019
Sportsman,78-102 The Broadway,Stratford,London,E09000025,Newham,,E05000492,Stratford and New Town,,0.001928528398192795,51.54167892636549,538926.9161856235,184430.24484546535,08/25/2019
Goldengrove,146-148 The Grove,Stratford,London,E09000025,Newham,,E05000492,Stratford and New Town,,0.004052155931044828,51.54406167412191,539066.9131903015,184699.2435280467,08/25/2019
012 Bar & Grill,108-110 The Grove,Stratford,London,E09000025,Newham,,E05000492,Stratford and New Town,,0.004052155931044828,51.54406167412191,539066.9131903015,184699.2435280467,08/25/2019
Cart & Horses,1 Maryland Point,Stratford,London,E09000025,Newham,,E05000492,Stratford and New Town,,0.004317681394295475,51.54583768629344,539079.9125457508,184897.24426344497,08/25/2019
Leyton Star,116 High Road Leyton,Stratford,London,E09000031,Waltham Forest,,E05000591,Cathall,,-0.0051104206624398955,51.554505523648395,538399.919991914,185843.25742027536,08/25/2019
Carpenters Arms,17 Carpenters Road,Stratford,London,E09000025,Newham,,E05000492,Stratford and New Town,,-0.005472618544012891,51.537650392690985,538425.9208600968,183968.2438251985,08/25/2019
Britannia,2 Plaistow Grove,Stratford,London,E09000025,Newham,,E05000494,West Ham,,0.012743302692454075,51.53413768346107,539699.9060223768,183612.22362409474,08/25/2019
City View Hotel,11 Church Street,Stratford,London,E09000025,Newham,,E05000494,West Ham,,0.0075862223806803354,51.53621351597039,539335.9107805975,183833.23249640345,08/25/2019
King Edward VII,47 The Broadway,Stratford,London,E09000025,Newham,,E05000492,Stratford and New Town,,0.0026311019390842898,51.54092952378111,538977.915442899,184348.24325763196,08/25/2019
Olde Black Bull,13 Broadway,Stratford,London,E09000025,Newham,,E05000492,Stratford and New Town,,0.0026311019390842898,51.54092952378111,538977.915442899,184348.24325763196,08/25/2019
Refreshment Room,27 The Broadway,Stratford,London,E09000025,Newham,,E05000492,Stratford and New Town,,0.0026311019390842898,51.54092952378111,538977.915442899,184348.24325763196,08/25/2019
Secret Weapon,25 West Ham Lane,Stratford,London,E09000025,Newham,,E05000492,Stratford and New Town,,0.004139811520281798,51.53949188364011,539086.9139031427,184191.23998637253,08/25/2019
Queens Head,5 West Ham Lane,Stratford,London,E09000025,Newham,,E05000492,Stratford and New Town,,0.004139811520281798,51.53949188364011,539086.9139031427,184191.23998637253,08/25/2019
Greyhound,136 West Ham Lane,Stratford,London,E09000025,Newham,,E05000494,West Ham,,0.005640320711662112,51.53754177867764,539196.9125911589,183977.23629182176,08/25/2019
Abbey Tap,14 The Broadway,Stratford,London,E09000025,Newham,,E05000492,Stratford and New Town,,0.0003474505001100142,51.54048290972626,538820.9182136263,184294.24602140923,08/25/2019
Pride of Spitalfields,3 Heneage Street,Spitalfields,,E09000030,Tower Hamlets,,E05009333,Spitalfields & Banglatown,,-0.07037107876607733,51.51905981906137,533979.8390905457,181780.20709162042,08/25/2019
Carpenters Arms,135 Cambridge Heath Road,London,Whitechapel,E09000030,Tower Hamlets,,E05009331,St. Peter's,,-0.05526909564219317,51.523018751393145,535015.8674342664,182248.18759636005,08/25/2019
Fox @ Excel,"Warehouse 'K', Mace Gateway",Royal Docks,Canning Town,E09000025,Newham,,E05000478,Canning Town South,,0.025005524606743632,51.508935097237945,540627.8933666358,180833.1299130413,08/25/2019
Streeties,15 Shirley Street,Royal Docks,Canning Town,E09000025,Newham,,E05000478,Canning Town South,,0.011819913757189462,51.512867361974266,539700.9023296484,181245.16779600986,08/25/2019
Fox @ Connaught,Lynx Way,Royal Docks,Canning Town,E09000025,Newham,,E05000479,Custom House,,0.039453794395847536,51.50880154066871,541630.8930139358,180846.1197943415,08/25/2019
Beckton Arms,1 Beckton Road,Royal Docks,Canning Town,E09000025,Newham,,E05000477,Canning Town North,,0.014164042785014416,51.51732365243943,539849.91127883,181745.18790409493,08/25/2019
Husk Brewing Taproom,"58A Railway Arches, North Woolwich Road",Royal Docks,,E09000025,Newham,,E05000491,Royal Docks,,0.018622318521150635,51.504395896793454,540198.8758571194,180316.12798861315,08/25/2019
Henley Arms,268 Albert Road,Royal Docks,London,E09000025,Newham,,E05000491,Royal Docks,,0.05833163243227521,51.500800793856435,542965.8760834739,179993.1077157961,08/25/2019
Royal Standard Hotel,116 Albert Road,Royal Docks,London,E09000025,Newham,,E05000491,Royal Docks,,0.06357622056139292,51.50016004509837,543331.8777774161,179932.10599428526,08/25/2019
Brick Lane Brews,"Gate 2B Airside, London City Airport,Westside Pier",Custom House,,E09000025,Newham,,E05000491,Royal Docks,,0.046436129718553334,51.50414751038709,542129.8795463195,180342.11369401513,08/25/2019
Reach Bar,"Gallions Hotel, Albert Basin Way",Royal Docks,,E09000025,Newham,,E05000475,Beckton,,0.0736977805131429,51.50633950200974,544014.8881275677,180639.1186872993,08/25/2019
Custom House (Pub & Kitchen),272-283 Victoria Dock Road,Royal Docks,Custom House,E09000025,Newham,,E05000479,Custom House,,0.02804459350229811,51.51019552317092,540834.8945643608,180979.13048518036,08/25/2019
Princess Alexandra,219 Barking Road,London,,E09000025,Newham,,E05000477,Canning Town North,,0.01538832474133583,51.51926305184409,539928.9104954487,181963.19072557846,08/25/2019
Durham Arms,24 Stephenson Street,London,,E09000025,Newham,,E05000477,Canning Town North,,0.0037307300720888837,51.51901332253555,539120.9146133034,181913.2090849487,08/25/2019
Gun,54 Brushfield Street,Shoreditch,,E09000030,Tower Hamlets,,E05009333,Spitalfields & Banglatown,,-0.07664643180798,51.518938167653324,533544.829461502,181755.21715680097,08/25/2019
English Restaurant,50-52 Brushfield St,London,Spitalfields,E09000030,Tower Hamlets,,E05009333,Spitalfields & Banglatown,,-0.07664643180798,51.518938167653324,533544.829461502,181755.21715680097,08/25/2019
Water Poet,11 Folgate Street,London,Spitalfields,E09000030,Tower Hamlets,,E05009333,Spitalfields & Banglatown,,-0.07732428159536692,51.52098163977492,533491.8313164733,181981.22132959648,08/25/2019
Grocer,Spitalfields Market,London,Spitalfields,E09000030,Tower Hamlets,,E05009333,Spitalfields & Banglatown,,-0.07633562213735268,51.51981434986587,533563.8311635396,181853.21795707667,08/25/2019
Galvin Hop,35 Spital Square,Spitalfields,,E09000030,Tower Hamlets,,E05009333,Spitalfields & Banglatown,,-0.078308316142703,51.52020642408736,533425.8287417572,181893.2217824402,08/25/2019
Boxbar,2-10 Bethnal Green Road,Shoreditch,,E09000012,Hackney,,E05009377,Hoxton East & Shoreditch,,-0.07631181654144742,51.523455998749064,533554.8363275229,182258.22335196007,08/25/2019
Juno,134-135 Shoreditch High Street,London,Shoreditch,E09000012,Hackney,,E05009377,Hoxton East & Shoreditch,,-0.07824842772307809,51.526419380338574,533411.8377951685,182584.23010698205,08/25/2019
Barrio East,141-143 Shoreditch High Street,London,Shoreditch,E09000012,Hackney,,E05009377,Hoxton East & Shoreditch,,-0.07824842772307809,51.526419380338574,533411.8377951685,182584.23010698205,08/25/2019
Corner Shop,123 Shoreditch High Street,London,Shoreditch,E09000012,Hackney,,E05009377,Hoxton East & Shoreditch,,-0.07824842772307809,51.526419380338574,533411.8377951685,182584.23010698205,08/25/2019
Dragon,138-139 Shoreditch High Street,London,Shoreditch,E09000012,Hackney,,E05009377,Hoxton East & Shoreditch,,-0.07824842772307809,51.526419380338574,533411.8377951685,182584.23010698205,08/25/2019
Shoreditch,145 Shoreditch High Street,London,Shoreditch,E09000012,Hackney,,E05009377,Hoxton East & Shoreditch,,-0.07824842772307809,51.526419380338574,533411.8377951685,182584.23010698205,08/25/2019
Dirty Bones,1 Club Row,London,Spitalfields,E09000030,Tower Hamlets,,E05009335,Weavers,,-0.0742768010818627,51.524195946095894,533693.8404403315,182344.22104286816,08/25/2019
BrewDog Shoreditch,51-55 Bethnal Green Road,London,Spitalfields,E09000030,Tower Hamlets,,E05009335,Weavers,,-0.07379950804436078,51.524233065198835,533726.8412128474,182349.22029684688,08/25/2019
Culpeper,40 Commercial Street,London,Spitalfields,E09000030,Tower Hamlets,,E05009333,Spitalfields & Banglatown,,-0.07227376464440816,51.51633037595001,533855.8323331395,181473.2061933761,08/25/2019
Ten Bells,84 Commercial Street,London,Spitalfields,E09000030,Tower Hamlets,,E05009333,Spitalfields & Banglatown,,-0.07365677868690752,51.51907790664873,533751.8341639999,181776.21248375234,08/25/2019
Golden Heart,110 Commercial Street,London,Spitalfields,E09000030,Tower Hamlets,,E05009333,Spitalfields & Banglatown,,-0.07418365331930118,51.519913894439235,533712.834547608,181868.2145759912,08/25/2019
Commercial Tavern,142 Commercial Street,Spitalfields,,E09000030,Tower Hamlets,,E05009333,Spitalfields & Banglatown,,-0.07600283087731255,51.52189519088054,533580.8345954521,182085.22051076742,08/25/2019
Momento Lounge Bar,23-24 Shoreditch High Street,London,Shoreditch,E09000012,Hackney,,E05009377,Hoxton East & Shoreditch,,-0.0776928221694214,51.52249845778848,533461.8328960328,182149.2242189318,08/25/2019
Goose Island Brewpub,222 Shoreditch High Street,London,Shoreditch,E09000012,Hackney,,E05009377,Hoxton East & Shoreditch,,-0.07822847304432072,51.522444294545345,533424.8320118738,182142.22502767673,08/25/2019
Crown & Shuttle,226 Shoreditch High Street,Spitalfields,,E09000012,Hackney,,E05009377,Hoxton East & Shoreditch,,-0.07822847304432072,51.522444294545345,533424.8320118738,182142.22502767673,08/25/2019
Montys Bar & Lounge,149 Brick Lane,London,Spitalfields,E09000030,Tower Hamlets,,E05009335,Weavers,,-0.07169966033765805,51.524117596792976,533872.8442186204,182340.21660600032,08/25/2019
Goose,264 Hoe Street,Walthamstow,London,E09000031,Waltham Forest,,E05000599,High Street,,-0.0193315964476366,51.583783514738805,537325.8822928818,189072.25972348172,08/25/2019
Flowerpot,128 Wood Street,Walthamstow,Upper Walthamstow,E09000031,Waltham Forest,,E05000609,Wood Street,,-0.004461516762969924,51.58812652316633,538342.8678598921,189583.22972698603,08/25/2019
Duke's Head,112 Wood Street,Walthamstow,Upper Walthamstow,E09000031,Waltham Forest,,E05000609,Wood Street,,-0.004461516762969924,51.58812652316633,538342.8678598921,189583.22972698603,08/25/2019
Empire Lounge,20 Woodford New Road,Walthamstow,Upper Walthamstow,E09000031,Waltham Forest,,E05000609,Wood Street,,0.009289091079526524,51.59321518006346,539279.8349613515,190175.1939632995,08/25/2019
William Morris,807 Forest Road,Walthamstow,London,E09000031,Waltham Forest,,E05000592,Chapel End,,-0.008084099996650496,51.591119597295155,538082.8573795661,189909.22475323325,08/25/2019
Bell,617 Forest Road,Walthamstow,London,E09000031,Waltham Forest,,E05000592,Chapel End,,-0.016097079771913065,51.59011338511086,537530.8606907398,189782.2369253243,08/25/2019
"Mirth, Marvel & Maud",186 Hoe St,Walthamstow,,E09000031,Waltham Forest,,E05000599,High Street,,-0.020397399894970754,51.58649918190682,537243.8680740129,189372.2505844332,08/25/2019
Victoria,186 Hoe Street,Walthamstow,London,E09000031,Waltham Forest,,E05000599,High Street,,-0.020397399894970754,51.58649918190682,537243.8680740129,189372.2505844332,08/25/2019
Olde Rose & Crown,53-55 Hoe Street,Walthamstow,London,E09000031,Waltham Forest,,E05000601,Hoe Street,,-0.020333056992825827,51.58698368000081,537246.866351625,189426.24901297066,08/25/2019
Dog & Duck,222 Chingford Road,Walthamstow,Highham Hill,E09000031,Waltham Forest,,E05000592,Chapel End,,-0.015043146622065767,51.598404425685004,537578.828065752,190706.20916866598,08/25/2019
Wild Card Brewery Taproom,"Unit 2, Lockwood Way",Walthamstow,Walthamstow,E09000031,Waltham Forest,,E05000600,Higham Hill,,-0.04221985751575824,51.59535389375479,535705.7674870522,190316.21599569457,08/25/2019
Warrant Officer,318 Higham Hill Road,Walthamstow,Highham Hill,E09000031,Waltham Forest,,E05000600,Higham Hill,,-0.034912768039469716,51.596382775651826,536208.7849783961,190444.21158253064,08/25/2019
Prince Of Wales,58 St Andrews Road,Walthamstow,Highham Hill,E09000031,Waltham Forest,,E05000600,Higham Hill,,-0.03683897554147734,51.59323176225297,536084.7885416322,190090.22290988627,08/25/2019
Lord Palmerston,252-254 Forest Road,Walthamstow,Highham Hill,E09000031,Waltham Forest,,E05000599,High Street,,-0.0318938525377771,51.588383058702135,536441.8232860275,189560.2408688871,08/25/2019
Chequers,145 High Street,Walthamstow,London,E09000031,Waltham Forest,,E05000599,High Street,,-0.025551379077380452,51.58382536375485,536894.8621320648,189065.25778041495,08/25/2019
Coppermill,205 Coppermill Lane,Walthamstow,London,E09000031,Waltham Forest,,E05000599,High Street,,-0.04050724745619476,51.5801102380367,535869.8208589653,188624.24646525492,08/25/2019
Goergio's Sports Bar & Grill,30 St James's Street,Walthamstow,London,E09000031,Waltham Forest,,E05000599,High Street,,-0.03341175226611768,51.580971811086705,536358.8464993583,188733.25566869037,08/25/2019
Wild Card Brewery Barrel Room,"Unit 7, Ravenswood Industrial Estate, Shernhall Street",Walthamstow,,E09000031,Waltham Forest,,E05000609,Wood Street,,-0.0081112315949244,51.58389023786152,538102.8831177009,189105.24705802527,08/25/2019
Pillars Brewery Tap,"Unit 2, Ravenswood Industrial Estate, Shernhall St.",London,,E09000031,Waltham Forest,,E05000609,Wood Street,,-0.0081112315949244,51.58389023786152,538102.8831177009,189105.24705802527,08/25/2019
Lord Raglan,199 Shernhall Street,Walthamstow,London,E09000031,Waltham Forest,,E05000609,Wood Street,,-0.00307931637534162,51.58178137813529,538457.8884254774,188880.24588322418,08/25/2019
Castle,15 Grosvenor Rise East,Walthamstow,London,E09000031,Waltham Forest,,E05000601,Hoe Street,,-0.010977295706450872,51.580728594175916,537913.893907161,188748.2569540274,08/25/2019
Nag's Head,9 Orford Road,Walthamstow,London,E09000031,Waltham Forest,,E05000601,Hoe Street,,-0.01075481043159168,51.58351246670426,537920.8849314578,189058.25118622067,08/25/2019
Queens Arms,42 Orford Road,Walthamstow,London,E09000031,Waltham Forest,,E05000601,Hoe Street,,-0.013077238826025664,51.582553679672856,537762.8885803726,188947.2558361878,08/25/2019
Village,31 Orford Road,Walthamstow,London,E09000031,Waltham Forest,,E05000601,Hoe Street,,-0.011712417199811663,51.582737374110465,537856.8876476502,188970.25386776432,08/25/2019
City Bar & Kitchen,9 Stoney Street c/o White Kennet Lane,London,Aldgate East,E09000001,City and County of the City of London,,E05009289,Aldgate,,-0.07758327656468073,51.51517660674168,533490.8227281125,181335.21288750332,08/25/2019
Bell,50 Middlesex Street,London,Aldgate East,E09000030,Tower Hamlets,,E05009333,Spitalfields & Banglatown,,-0.07546640281270592,51.51581631269078,533635.8268049078,181410.2105191038,08/25/2019
Tracks&records,94-98 Middlesex Street,London,Aldgate East,E09000030,Tower Hamlets,,E05009333,Spitalfields & Banglatown,,-0.07661794126873532,51.51687837259046,533552.8265986182,181526.21401233546,08/25/2019
Simmons,21 Widegate Street,London,Liverpool Street,E09000001,City and County of the City of London,,E05009292,Bishopsgate,,-0.07820848785729362,51.51812747489479,533438.8259665801,181662.21848262363,08/25/2019
Kings Stores,14 Widegate Street,Spitalfields,,E09000001,City and County of the City of London,,E05009292,Bishopsgate,,-0.07820848785729362,51.51812747489479,533438.8259665801,181662.21848262363,08/25/2019
Astronomer,125-129 Middlesex Street,London,Aldgate East,E09000001,City and County of the City of London,,E05009292,Bishopsgate,,-0.07877819190293753,51.51794796997178,533399.8248556163,181641.21913646167,08/25/2019
Grapeshots,2-3 Artillery Passage,London,Aldgate East,E09000030,Tower Hamlets,,E05009333,Spitalfields & Banglatown,,-0.07738859275144158,51.518087047813616,533495.8271450673,181659.21709000046,08/25/2019
Williams Ale & Cider House,22-24 Artillery Lane,Spitalfields,,E09000001,City and County of the City of London,,E05009292,Bishopsgate,,-0.078285829159438,51.51834456791368,533432.8261555316,181686.21893585025,08/25/2019
Bar Locks,21 White Church Lane,London,Aldgate East,E09000030,Tower Hamlets,,E05009336,Whitechapel,,-0.06924951680602372,51.515588148403936,534067.8357699434,181396.2002732795,08/25/2019
White Hart,89 Whitechapel High Street,London,Aldgate East,E09000030,Tower Hamlets,,E05009333,Spitalfields & Banglatown,,-0.07114542042254733,51.51574526840424,533935.8331666905,181410.2035223334,08/25/2019
Lizard Lounge,186-188 George Lane,South Woodford,London,E09000026,Redbridge,,E05011252,South Woodford,,0.02460591947301663,51.59383312439348,540338.8261151238,190273.18411224056,08/25/2019
Slug & Lettuce,184 George Lane,South Woodford,London,E09000026,Redbridge,,E05011252,South Woodford,,0.02460591947301663,51.59383312439348,540338.8261151238,190273.18411224056,08/25/2019
Railway Bell,87 George Lane,South Woodford,London,E09000026,Redbridge,,E05011252,South Woodford,,0.02822555023327929,51.591792247715134,540595.8272772889,190053.1836707411,08/25/2019
George,70-74 High Road,South Woodford,London,E09000026,Redbridge,,E05011252,South Woodford,,0.022709678015455,51.59339820806025,540208.8263545346,190221.18417694268,08/25/2019
Duke Of Somerset,15 Little Somerset Street,London,Goodmans,E09000001,City and County of the City of London,,E05009308,Portsoken,,-0.07445100147820898,51.513920156798896,533711.8255862002,181201.20600712212,08/25/2019
Goodman's Field,87-91 Mansell Street,London,Goodmans,E09000030,Tower Hamlets,,E05009336,Whitechapel,,-0.07288269525307033,51.51249151376533,533824.8258318489,181045.2014091164,08/25/2019
Princess Of Prussia,15 Prescot Street,London,Goodmans,E09000030,Tower Hamlets,,E05009336,Whitechapel,,-0.07050225536186953,51.51152609363184,533992.8279138559,180942.19632520835,08/25/2019
White Swan,21 Alie Street,London,Goodmans,E09000030,Tower Hamlets,,E05009336,Whitechapel,,-0.07122103450716058,51.513615241989726,533936.8299270513,181173.20050259214,08/25/2019
Black Horse,40 Leman Street,London,Goodmans,E09000030,Tower Hamlets,,E05009336,Whitechapel,,-0.07016972242476152,51.512914487540115,534011.8304493423,181097.1978408051,08/25/2019
Oliver Conquest,70 Leman Street,London,Goodmans,E09000030,Tower Hamlets,,E05009336,Whitechapel,,-0.07016972242476152,51.512914487540115,534011.8304493423,181097.1978408051,08/25/2019
Brown Bear,139 Leman Street,London,Goodmans,E09000030,Tower Hamlets,,E05009336,Whitechapel,,-0.06934883296890973,51.512559243029344,534069.8311339681,181059.196055839,08/25/2019
Running Horse,"7 Piazza Walk, Leman St, Goodmans Field",London,Aldgate,E09000030,Tower Hamlets,,E05009336,Whitechapel,,-0.06985013069767118,51.513655618564755,534031.8320160174,181180.1984221193,08/25/2019
Wilton's Music Hall Mahogany Bar,Graces Alley,Shadwell,Tower Hamlets,E09000030,Tower Hamlets,,E05009336,Whitechapel,,-0.06693794649190628,51.51061305309452,534242.831558893,180847.19065066555,08/25/2019
Sir Sydney Smith,22 Dock Street,London,,E09000030,Tower Hamlets,,E05009336,Whitechapel,,-0.06846651381821968,51.50990983934172,534138.828491391,180766.1909041322,08/25/2019
Simmons,61 Royal Mint Street,London,Goodmans,E09000030,Tower Hamlets,,E05009336,Whitechapel,,-0.07049251629114818,51.51039285185256,533996.8262590201,180816.19465305418,08/25/2019
Artful Dodger,47 Royal Mint Street,London,Goodmans,E09000030,Tower Hamlets,,E05009336,Whitechapel,,-0.07049251629114818,51.51039285185256,533996.8262590201,180816.19465305418,08/25/2019
Leman Street Tavern,31 Leman Street,London,Goodmans,E09000030,Tower Hamlets,,E05009336,Whitechapel,,-0.07020829507128966,51.51370648093229,534006.8315607647,181185.19905539707,08/25/2019
Bar & Block,66 Alie Street,Aldgate,,E09000030,Tower Hamlets,,E05009336,Whitechapel,,-0.06975079226072559,51.51395973429755,534037.8326127537,181214.19870829582,08/25/2019
Slug & Lettuce,"Unit 1 Tower Bridge House, St Katherine's Dock",London,Wapping,E09000030,Tower Hamlets,,E05009330,St. Katharine's & Wapping,,-0.0727772391950476,51.50679739378998,533848.8176858841,180412.19280531217,08/25/2019
Dickens Inn,"Marble Quay, St Katherine's Way",London,Wapping,E09000030,Tower Hamlets,,E05009330,St. Katharine's & Wapping,,-0.07024166354650682,51.506440922423835,534025.8207770869,180377.18877360184,08/25/2019
Moretown Belle,"5 Thomas Moore Sq, Nesham Street",London,Wapping,E09000030,Tower Hamlets,,E05009330,St. Katharine's & Wapping,,-0.06722238030966733,51.50729943467724,534232.8261992529,180478.18648251874,08/25/2019
Captain Kidd,108 Wapping High Street,London,Wapping,E09000030,Tower Hamlets,,E05009330,St. Katharine's & Wapping,,-0.06009778828836929,51.50302713664555,534739.828323216,180016.1775811318,08/25/2019
Turk's Head,1 Green Bank,London,Wapping,E09000030,Tower Hamlets,,E05009330,St. Katharine's & Wapping,,-0.06127133664473298,51.50423358522294,534654.8288304204,180148.17950231466,08/25/2019
Town Of Ramsgate,62 Wapping High Street,London,Wapping,E09000030,Tower Hamlets,,E05009330,St. Katharine's & Wapping,,-0.062057495098949915,51.5033652980008,534602.8264957103,180050.1789484379,08/25/2019
Turner's Old Star,14 Watts Street,London,Wapping,E09000030,Tower Hamlets,,E05009330,St. Katharine's & Wapping,,-0.059364524679204826,51.505362096112236,534783.8329870104,180277.1796785593,08/25/2019
White Swan & Cuckoo,97 Wapping Lane,London,Wapping,E09000030,Tower Hamlets,,E05009330,St. Katharine's & Wapping,,-0.05787943237696452,51.5053824678851,534886.8348572976,180282.1788679883,08/25/2019
Prospect of Whitby,57 Wapping Wall,London,Shadwell,E09000030,Tower Hamlets,,E05009330,St. Katharine's & Wapping,,-0.05101886878276715,51.507103130275496,535357.8462456991,180486.1767350866,08/25/2019
Neighbourhood,5254 Celebration Avenue,Stratford,East Village,E09000025,Newham,,E05000492,Stratford and New Town,,-0.00791350746770264,51.54746692286666,538226.9213782082,185055.251705983,08/25/2019
Tap East,"Montfichet Road, 7 International Square",Westfield Stratford City,London,E09000025,Newham,,E05000492,Stratford and New Town,,-0.008867332874752783,51.544119845673414,538170.9215365859,184681.24829359533,08/25/2019
Bat & Ball,"Unit 1110/1111, Westfield Centre",Stratford City,London,E09000025,Newham,,E05000492,Stratford and New Town,,-0.0063195504829034145,51.544337371877354,538346.9210707622,184710.24958341237,08/25/2019
Bumpkin,105-106 The Street,Stratford,,E09000025,Newham,,E05000492,Stratford and New Town,,-0.00754654063465414,51.54299132380806,538265.9213012743,184558.24786903808,08/25/2019
Cow,4 Chestnut Plaza,Westfield Stratford City,London,E09000025,Newham,,E05000492,Stratford and New Town,,-0.007307164869087194,51.5425286313862,538283.921266405,184507.2475756411,08/25/2019
Four Quarters East,"Unit 8 Canalside, East Bay Lane, Here East,Queen Elizabeth Park",Stratford,Stratford,E09000012,Hackney,,E05009374,Hackney Wick,,-0.022262160047026903,51.54752074958121,537231.9207617368,185034.24042645888,08/25/2019
Marquis Of Cornwallis,304 Bethnal Green Road,Bethnal Green,London,E09000030,Tower Hamlets,,E05009335,Weavers,,-0.06470356803618361,51.52625940810895,534351.8582873892,182591.20511800662,08/25/2019
Old George,379 Bethnal Green Road,Bethnal Green,London,E09000030,Tower Hamlets,,E05009331,St. Peter's,,-0.0595039948360324,51.52716258887851,534709.8679054267,182701.19404723676,08/25/2019
Sun Tavern,441 Bethnal Green Road,Bethnal Green,London,E09000030,Tower Hamlets,,E05009331,St. Peter's,,-0.0595039948360324,51.52716258887851,534709.8679054267,182701.19404723676,08/25/2019
Shakespeare,460 Bethnal Green Road,Bethnal Green,London,E09000030,Tower Hamlets,,E05009331,St. Peter's,,-0.05724558149162148,51.52704423321393,534866.8711884071,182692.1897267651,08/25/2019
Bethnal Green Tavern,456 Bethnal Green Road,Bethnal Green,London,E09000030,Tower Hamlets,,E05009331,St. Peter's,,-0.05724558149162148,51.52704423321393,534866.8711884071,182692.1897267651,08/25/2019
Salmon & Ball,502 Bethnal Green Road,Bethnal Green,London,E09000030,Tower Hamlets,,E05009331,St. Peter's,,-0.05724558149162148,51.52704423321393,534866.8711884071,182692.1897267651,08/25/2019
OLd Street Brewery Taproom,"Arch 11, Gales Gardens",Bethnal Green,,E09000030,Tower Hamlets,,E05009331,St. Peter's,,-0.05666155753468138,51.52653996051921,534908.8712604614,182637.18905928772,08/25/2019
Backyard Bar & Kitchen,231 Cambridge Heath Rd,Bethnal Green,Cambridge Heath,E09000030,Tower Hamlets,,E05009331,St. Peter's,,-0.055743987303872984,51.52675854409312,534971.8730394598,182663.1870500284,08/25/2019
Camel,277 Globe Road,Bethnal Green,London,E09000030,Tower Hamlets,,E05009317,Bethnal Green,,-0.051294137931200016,51.52833026185165,535275.8822428484,182846.1777665558,08/25/2019
Florist Arms,255 Globe Road,Bethnal Green,London,E09000030,Tower Hamlets,,E05009317,Bethnal Green,,-0.051294137931200016,51.52833026185165,535275.8822428484,182846.1777665558,08/25/2019
Casa Blue,120 Bethnal Green Road,Bethnal Green,Shoreditch,E09000030,Tower Hamlets,,E05009335,Weavers,,-0.07116011921883897,51.52494503748163,533907.8461996659,182433.21689916722,08/25/2019
Carpenter's Arms,73 Cheshire Street,Bethnal Green,London,E09000030,Tower Hamlets,,E05009335,Weavers,,-0.06662689341256456,51.52407897628514,534224.8518579926,182345.20785341336,08/25/2019
Kings Arms,11a Buckfast Street,Bethnal Green,London,E09000030,Tower Hamlets,,E05009335,Weavers,,-0.06625511274881656,51.52536778654679,534246.8543107335,182489.20871403196,08/25/2019
Star of Bethnal Green,359 Bethnal Green Road,Bethnal Green,London,E09000030,Tower Hamlets,,E05009331,St. Peter's,,-0.062484769226709834,51.526906170160544,534503.8628670971,182667.20014280092,08/25/2019
Workers Arms,"Bethnal Green Working Men's Club, 42-44 Pollard Row",Bethnal Green,,E09000030,Tower Hamlets,,E05009331,St. Peter's,,-0.06332789676436504,51.527081973658895,534444.8618738631,182685.20162943297,08/25/2019
Well & Bucket,143 Bethnal Green Road,Bethnal Green,Shoreditch,E09000030,Tower Hamlets,,E05009335,Weavers,,-0.07105544343561966,51.52537496355504,533913.8469639979,182481.21734494035,08/25/2019
Redchurch,107 Redchurch Street,Bethnal Green,Shoreditch,E09000030,Tower Hamlets,,E05009335,Weavers,,-0.07243241763021606,51.52485805980573,533819.8441568585,182421.2189148938,08/25/2019
Owl & Pussycat,34 Redchurch Street,Bethnal Green,Shoreditch,E09000030,Tower Hamlets,,E05009335,Weavers,,-0.07447431203957726,51.52429811119776,533679.8402862593,182355.22152501298,08/25/2019
Mikkeller Bar,2 Hackney Road,Bethnal Green,Shoreditch,E09000030,Tower Hamlets,,E05009335,Weavers,,-0.07669215198454163,51.52742799409023,533516.841864001,182699.22751870693,08/25/2019
Birdcage,80 Columbia Road,Bethnal Green,Shoreditch,E09000030,Tower Hamlets,,E05009335,Weavers,,-0.07065096616224018,51.5284617342072,533932.8530662231,182825.21502445813,08/25/2019
Royal Oak,73 Columbia Road,Bethnal Green,Shoreditch,E09000030,Tower Hamlets,,E05009335,Weavers,,-0.06918660403499476,51.52933686164213,534031.8569583616,182925.21120946074,08/25/2019
Nelsons Head,32 Horatio Street,Bethnal Green,Shoreditch,E09000030,Tower Hamlets,,E05009335,Weavers,,-0.06985749455262988,51.530858657399484,533980.8586526731,183093.21159100143,08/25/2019
Marksman,254 Hackney Road,Bethnal Green,Shoreditch,E09000030,Tower Hamlets,,E05009335,Weavers,,-0.06869952550742464,51.53096546738565,534060.8607179441,183107.20865711774,08/25/2019
Spread Eagle,3 Kingsland Road,Bethnal Green,Haggerston,E09000012,Hackney,,E05009377,Hoxton East & Shoreditch,,-0.07817764342635845,51.52844155359336,533410.8412371993,182809.23088930186,08/25/2019
Basing House,25 Kingsland Road,Bethnal Green,Haggerston,E09000012,Hackney,,E05009377,Hoxton East & Shoreditch,,-0.07817764342635845,51.52844155359336,533410.8412371993,182809.23088930186,08/25/2019
Glory,281 Kingsland Road,Bethnal Green,Haggerston,E09000012,Hackney,,E05009377,Hoxton East & Shoreditch,,-0.07710150763852501,51.53584276111115,533463.8532535216,183634.2293560545,08/25/2019
Old Shoreditch Station,1 Kingsland Road,Bethnal Green,Shoreditch,E09000012,Hackney,,E05009377,Hoxton East & Shoreditch,,-0.07780340003932236,51.52774298479759,533438.8406666531,182732.22982366662,08/25/2019
Catch,22 Kingsland Road,Bethnal Green,Haggerston,E09000012,Hackney,,E05009377,Hoxton East & Shoreditch,,-0.07780340003932236,51.52774298479759,533438.8406666531,182732.22982366662,08/25/2019
Troyganic,132 Kingsland Road,Bethnal Green,Haggerston,E09000012,Hackney,,E05009375,Haggerston,,-0.07714642146205056,51.529647625412295,533478.8448657863,182945.2290840128,08/25/2019
Brewhouse & Kitchen,397-400 Geffrye Street,Bethnal Green,Haggerston,E09000012,Hackney,,E05009375,Haggerston,,-0.07536173946583032,51.532307095967354,533594.8522361335,183244.22515131027,08/25/2019
Virgin Queen,94 Goldsmiths Row,Bethnal Green,Haggerston,E09000012,Hackney,,E05009375,Haggerston,,-0.06429456509387688,51.53351858833729,534358.8718096643,183399.19735986053,08/25/2019
Sebright Arms,31-35 Coate Street,Bethnal Green,Cambridge Heath,E09000030,Tower Hamlets,,E05009331,St. Peter's,,-0.06297277937457846,51.53204895479626,534454.8711251661,183238.1961807072,08/25/2019
Perseverance,112 Pritchards Road,Bethnal Green,Cambridge Heath,E09000030,Tower Hamlets,,E05009331,St. Peter's,,-0.06236283379702464,51.53418807772584,534490.8750910604,183477.1930890868,08/25/2019
Hare,505 Cambridge Heath Road,Bethnal Green,Cambridge Heath,E09000030,Tower Hamlets,,E05009331,St. Peter's,,-0.057535721051593144,51.5334337210004,534827.881339683,183402.18422259297,08/25/2019
Victory,27 Vyner Street,Bethnal Green,Cambridge Heath,E09000030,Tower Hamlets,,E05009331,St. Peter's,,-0.054759988437926774,51.53461965551646,535016.8856742535,183539.17847924866,08/25/2019
Bistrotheque,2327 Wadeson Street,Bethnal Green,Cambridge Heath,E09000030,Tower Hamlets,,E05009331,St. Peter's,,-0.05641385669275433,51.534044595416056,534903.8835505822,183472.18163147767,08/25/2019
Queen Adelaide,481 Hackney Road,Bethnal Green,Cambridge Heath,E09000030,Tower Hamlets,,E05009331,St. Peter's,,-0.058656159599563926,51.532517069049774,534752.8781963913,183298.18728637462,08/25/2019
Resident,"Arch 252, Paradise Row",Bethnal Green,,E09000030,Tower Hamlets,,E05009331,St. Peter's,,-0.05606877219648688,51.527932959038175,534945.8744550484,182793.18657296698,08/25/2019
Mother Kelly's,251 Paradise Row,Bethnal Green,,E09000030,Tower Hamlets,,E05009331,St. Peter's,,-0.05606877219648688,51.527932959038175,534945.8744550484,182793.18657296698,08/25/2019
Dundee Arms,339 Cambridge Heath Road,Bethnal Green,London,E09000030,Tower Hamlets,,E05009331,St. Peter's,,-0.05612251444311298,51.529039929079175,534938.8761820958,182916.18562771275,08/25/2019
Approach Tavern,47 Approach Road,Bethnal Green,Cambridge Heath,E09000030,Tower Hamlets,,E05009331,St. Peter's,,-0.05175969410990874,51.53126955386109,535234.8862382779,183172.1749665778,08/25/2019
Redchurch Brewery,275-276 poyser street,Bethnal Green,Cambridge Heath,E09000030,Tower Hamlets,,E05009325,Lansbury,,0.001316701581261573,51.5152415321635,538964.909479025,181489.1962974514,08/25/2019
Little Driver,125 Bow Road,Bow,London,E09000030,Tower Hamlets,,E05009320,Bow West,,-0.023899439860606643,51.52771041242408,537177.910735625,182828.21514775231,08/25/2019
Coborn,8 Coborn Road,Bow,London,E09000030,Tower Hamlets,,E05009320,Bow West,,-0.030205149418916392,51.52724984839551,536741.9040297237,182765.20486181212,08/25/2019
Lighthouse,421 Wick Lane,Bow,London,E09000030,Tower Hamlets,,E05009319,Bow East,,-0.02212763571720679,51.53632255833473,537274.9180187911,183789.2263057161,08/25/2019
Muller & Briggs,130 Cadogan Terrace,Hackney Wick,,E09000030,Tower Hamlets,,E05009319,Bow East,,-0.027376375306310725,51.53932448789312,536901.9147743463,184113.2200050039,08/25/2019
